name,place_id,type,lat,lng,address
Singapore,ChIJyY4rtGcX2jERIKTarqz3AAQ,food,1.2811866,103.8503404,Singapore
Tuas,ChIJGQcMLX8G2jER_p2LLP4PXII,food,1.2949472,103.6304833,Singapore
Western Islands,ChIJfUjDTFkD2jERWk3ccN3PpWk,food,1.2478844,103.6767958,Singapore
Advario Helios Singapore Pte. Ltd.,ChIJESNtgqUD2jER-d2qU9Ud16c,food,1.2235441,103.6738263,55 Meranti Road
Tanjong Romos,ChIJ2dBd4LEd2jERjKk3OIS-RUQ,food,1.2173674,103.7586456,Semakau Island
Bukom Shri Sakthi Vinayagar Temple,ChIJKXkDb3Id2jERx1J378MToi8,food,1.2254749,103.7760069,Bukom Island
Aster Chemical and Energy Pte. Ltd.,ChIJ4QPVGgAd2jERaMNngK8lVBM,food,1.2263609,103.7771921,Bukom Island
Bukom Canteen,ChIJZTj8Z94d2jERKtTA2Tem_lc,food,1.2257635,103.7760102,Bukom Island
Masjid Pulau Bukom,ChIJjRkAze0c2jER6brFtAUoMKA,food,1.226923,103.7775726,"Pulau Bukom, Singapore"
scan-bilt.pte.ltd,ChIJNYHHOAAd2jERJ48gQgFoNBM,food,1.2257452,103.7751802,Bukom Island
JLL,ChIJz9aXj7od2jER8BSY5Jlwvfk,food,1.225788,103.7751328,"Pulau Bukom, Yard 10"
"Altrad Singapore, Bukom Office",ChIJc1ugvRMd2jERJb462SMgA5s,food,1.2251867,103.774044,Bukom Island
SEO Agency Singapore,ChIJ64TDgokR2jERj6d-L-NnIBc,food,1.2266434,103.7757292,"21 Bukit Batok Crescent, #15-76 Wcega Tower, Singapore"
Carrier (Workshop),ChIJh7oyfwAd2jERTiFMtmS80u0,food,1.226144,103.7747308,
Bukom Fire Station,ChIJoTRXIwAd2jER8XHzF3bjc-I,food,1.2278224,103.7760029,Bukom Island
Southern Islands,ChIJIQrWPrAe2jERyX2WHgkkCCg,food,1.2516481,103.8248465,Singapore
St John's Island Pier,ChIJZ4ANQfIe2jERWf_SQjbhsMM,food,1.2223067,103.8486874,"John's, 12 St Island"
st john lsland,ChIJ5zmIQAAf2jERaur131bgkMA,food,1.2190993,103.8448732,"38 St John's Island, 싱가포르"
Nur Alam,ChIJH_zzEQAf2jERaIALyJ4tJXs,food,1.2226727,103.8443078,
Dolphin Camp,ChIJvwyb3Z0f2jERUHgsaqtf-Dc,food,1.2226566,103.8443378,26 St John's Island
Otter Campsite,ChIJ504xi3sf2jERM4yAu4EaKtc,food,1.2223608,103.8450625,22 St John's Island
St John's Island Beach,ChIJB6EWEeof2jERBBeLOilV9sA,food,1.2224742,103.8460397,20 St John's Island
Jetty Lagoon,ChIJm69zjfIe2jERYfp34NfS8_E,food,1.2225622,103.8470644,Singapore
Sisters’ Islands Marine Park,ChIJq6qqJoge2jERFyOllgktDCg,food,1.2139132,103.8347519,Sisters’ Islands
Eagle’s Lodge,ChIJszqGD-Ef2jERwR7N3I9-Ynw,food,1.220776,103.848122,"14 St John's Island, Singapore"
Tua Pekong Temple,ChIJVVVVMfse2jERBJJuboMpkpI,food,1.2232473,103.8603946,
Kusu Island Chinese Temple,ChIJ-V18Lvse2jERXjUsB1soXs4,food,1.223224,103.859868,10 Khusu Island
"The Kusu Keramat, or Datok Kong Keramat",ChIJqVgpUPse2jER91TuWxEvgjM,food,1.2229982,103.8616035,10 Khusu Island
Kusu Island,ChIJT9pWLJAf2jERI7GcBCoQ5Ig,food,1.2232385,103.8610272,Singapore
Kusu Island Pier,ChIJlaUvLeUe2jER8VzAcsofmNQ,food,1.223578,103.8587281,Straits View
Tortoise Sanctuary,ChIJ3xSfteQe2jERRNWnVevm2mM,food,1.2239209,103.8606638,10 Khusu Island
左耳沙滩,ChIJcdKnJ24f2jER1TYPwuBLz3o,food,1.2253985,103.855467,Southern
Aerial view of St John and Lazarus Island,ChIJ9TVunQ0f2jERPkMEC5pXCXY,food,1.2220701,103.8520869,St. John island
St John - Lazarus Bridge,ChIJ55nHawsf2jERU_cb2r5Cbdg,food,1.2217653,103.8518316,St John Island
Catering Solutions,ChIJAYTFLssB2jERhBEinzmxRzo,restaurant,1.2447553,103.6141805,"96 Tuas South Boulevard, #01-41, Singapore"
DIAP-DAELIM JOINT VENTURE PTE LTD,ChIJC_rXTkYB2jERvbRXS-N884Q,food,1.2419575,103.6150074,200 Tuas South Avenue 2
PSA Tuas Port,ChIJM8LJPbAB2jER-i6N1XTBNUc,food,1.2391945,103.6159001,Singapore
F3 site Guard house,ChIJO9jLqf0B2jERnV2ARJXWVkA,food,1.2414743,103.6150234,
Tuas Lamp Post 1,ChIJSZ9pJHEB2jERNO7HNKtM2wA,food,1.2418195,103.6147595,999 Tuas South Boulevard
Bizsafe Contractor's Office,ChIJY7_-UAAB2jERecKTTDQ5Sr4,food,1.242233,103.614331,999 Tuas South Boulevard
Futsal Court,ChIJtSO9HgAB2jERrbKm6xKtv9w,food,1.2449721,103.6141123,
Parkcove,ChIJ_4Xs1okB2jERJ6JTKUrMkkY,food,1.2449789,103.6141112,
Pay2Home MTM - Tuas Lodge,ChIJrzD1cCsB2jERGKTT89OvEJo,food,1.2461503,103.6147464,"96 Tuas South Boulevard, Tuas Lodge"
Tuas Port,ChIJv1hZ1T4B2jERe0MjoMPlXkg,food,1.2420318,103.6120529,Tuas South Boulevard
TTP2 (Finger 3) Site Office,ChIJIc5Q8-MB2jERpUQhJw5FUmw,food,1.2317994,103.6192529,Tuas South Boulevard
Shoal Lighthouse,ChIJSZoUX-8D2jER8LD6sD8VeZ4,food,1.2396468,103.6480357,Singapore
Jurong Port Universal Terminal Pte. Ltd.,ChIJ5ZsFh3YD2jERvjCeX0c7O7E,food,1.2368851,103.6805404,61 Meranti Crescent
Intertek Group Plc,ChIJ5ZsFh3YD2jERKVqLRJfmCA0,food,1.238895,103.685621,61 Meranti Crescent
Meranti Power Site office,ChIJ1xoYSs4D2jERXLh-3t0l3nU,food,1.2371158,103.6775866,Meranti Road
OCGT,ChIJXXIKOAAD2jERj8N8WxiDxOk,food,1.2370249,103.6775528,"LOT 3860V, Jurong Island, 34 Meranti Road, PT MK"
LSI TERMINAL LOGISTICS,ChIJ7d3AUM8D2jERiaDX_Qhz1yw,food,1.2404706,103.6840157,"50 Meranti Crescent, Singapore"
Meranti Power,ChIJdwIxGwAD2jERA_SOPk9wsno,food,1.2361189,103.6772186,3 Meranti Road
Crunchy Bites Vending Machine- India's Fav Choice of Snacks & Biscuits,ChIJx2RoRQAD2jERSzPhWZ1LVVg,food,1.2358062,103.6776268,Meranti Road
SMCC OCGT Project site office,ChIJL_mPfQAD2jERAsEKjGQUAzE,food,1.2361068,103.6767146,
Cam post,ChIJ_1kzdAAD2jER4Wfi-5KTILU,food,1.2452345,103.6822322,"21A Meranti Crescent, Singapore"
Commodities Singapore,ChIJ5ZsFh3YD2jERmgiNbOapvbg,food,1.238895,103.685621,61 Meranti Crescent
আশিক সিঙ্গাপুর হোম,ChIJo7F5WAAD2jER1dQq5Jw288I,food,1.2455041,103.6820217,"21A Meranti Crescent, Singapore"
TSANDERCO Dormitory,ChIJYRB-JQAD2jERRmk4SUywjCY,food,1.2463913,103.6837865,
Singapore LNG Corporation Terminal,ChIJKUNjXwAD2jERW60zY6akXag,food,1.2354308,103.6730313,Jurong Island
JYC-NCL PTE LTD,ChIJ4TC0EIQD2jERHBwgjIzG2Sc,food,1.247243,103.675729,No. 32 Banyan Road
PB Tankers Ltd (Tankstore),ChIJq50ZHrkc2jERFIOuwp-Oi1g,clinic,1.235862,103.744556,
HIAP SENG,ChIJ9_C6qwId2jERz1my7zfIMsg,clinic,1.234572,103.7621445,Bukom island
Tanjong 1 Carpark,ChIJuf5_bKke2jERLULXmOwsYDE,transit_station,1.24607,103.82561,Singapore
Tanjong Beach,ChIJj-5azage2jEReXaIQXWXgkc,transit_station,1.24413,103.82737,Singapore
Palawan Beach,ChIJfQHyLKoe2jERhiqYvPi6cDg,transit_station,1.2474811,103.8243871,Singapore
Tanjong Beach Club,ChIJc6s2rage2jERzvX_e5IB_6k,restaurant,1.243299,103.828128,120 Tanjong Beach Walk
FOC by the Beach,ChIJBRTle6ke2jERAykxAgtBm68,restaurant,1.2467881,103.8249765,110 Tanjong Beach Walk
THE CLIFF,ChIJ5SCE0q4e2jERLiATjgKeV90,restaurant,1.2457724,103.8267834,"2 Bukit Manis Road, Sentosa"
FOCUS Adventure,ChIJSVorCKke2jERBkQHUdBrL2o,clinic,1.2451593,103.8248044,112 Tanjong Beach Walk
Reef the Chief,ChIJfS-EEQAf2jER8RbeRsPfscs,clinic,1.2461373,103.8238234,
Beach & Beats,ChIJdbZtACEf2jERWeihGwZq2UY,clinic,1.2426159,103.826768,"120 Tanjong Beach Walk, Singapore"
Tanjong 2,ChIJM-QkKwAf2jERKC1Qlxf0bfc,clinic,1.2428399,103.8271546,Sentosa Gateway
90 Degree Coconut Tree,ChIJLeQ1N5Uf2jERVoYYlhFFF9I,clinic,1.2475655,103.8216906,Southernmost Point
Dreamer Dee,ChIJafyCAkQf2jERWlqb4EmhgEI,clinic,1.247304,103.8226056,85A Palawan Beach Walk
Sentosa Nursery (Staff Only),ChIJBc6v4Tgf2jERrp5z_s6Y7j4,clinic,1.2451485,103.8258066,Sentosa
Southernmost Point of Continental Asia,ChIJLb-FB6oe2jER74hJNe4kwkw,clinic,1.2479756,103.8212538,"Palawan Island, Sentosa"
Palawan Viewing Tower,ChIJkctLwDod2jERJet33yIC-EA,clinic,1.2479643,103.8214455,Southernmost Point of Continental Asia
Fever,ChIJ2eM5mH8R2jER4b6KcIAVT04,clinic,1.2431022,103.8274965,"Tanjong Beach Walk, Sentosa"
Aquaholic Pool Party,ChIJBRTle6ke2jEReD-rjejvoOI,clinic,1.246761,103.8249249,110 Tanjong Beach Walk
Frankly Maintenance Services Pte. Ltd.,ChIJBRTle6ke2jERsWOo5oX5egY,clinic,1.2467881,103.8249765,110 Tanjong Beach Walk
Big Bridge,ChIJTw4adaoe2jER8xsQ6h_jSxc,clinic,1.2483754,103.8217643,Straits Boulevard
KidsCamp Singapore,ChIJKU4wlVcf2jERsRIYr8P-i3Y,clinic,1.2432981,103.8280264,120 Tanjong Beach Walk
Hendrick Sunset Cinema (Tanjong Beach Sentosa),ChIJXXM8AwAf2jER-CeK44LTu9Q,clinic,1.243429,103.8279884,120 Tanjong Beach Walk
Curious Sue,ChIJBWw6oyYf2jERt8QrPl0-6iw,clinic,1.247781,103.8238826,Palawan Beach
FU*K SINGAPORE,ChIJj5SGNgAf2jERjOeAgBr6KXM,clinic,1.2434007,103.8281067,"120 Tanjong Beach Walk, Singapura"
Bicycle Rack,ChIJtQQLP6oe2jERNoUQV2ZFly0,clinic,1.2481931,103.8232694,Palawan Beach Walk
Tanjong beach walk,ChIJ31yrfQAf2jERkANLsUR_0E4,clinic,1.2434596,103.828263,"120 Tanjong Beach Walk, Singapore"
Kindness Flower florist,ChIJb5kdbQAf2jERSVIKh8bvucY,shopping_mall,1.2477359,103.8419997,"31 Ocean Way, #01 - 23"
W Hotel/Quayside Isle,ChIJ690pZbYe2jER-PSBmhSKY58,transit_station,1.246394,103.84246,Singapore
Cove Village,ChIJ0VlrqrYe2jERo5J-VPM37dQ,transit_station,1.2469091,103.8392699,Singapore
WOK°15 Kitchen,ChIJfRsaqLYe2jERoKBUK2tvw8Q,restaurant,1.2458306,103.8398907,"#01-01 11 Cove Drive, Sentosa Cove"
the kitchen table,ChIJFQjWe7Ye2jERp81YJMFE3vE,restaurant,1.2462291,103.8418629,"21 Ocean Way, Sentosa"
SKIRT Restaurant,ChIJFQjWe7Ye2jER-Q54GE9iyqs,restaurant,1.2461984,103.8423677,21 Ocean Way
Boaters' Bar,ChIJJbOpwbYe2jER2sJeFxLOV9A,restaurant,1.2469733,103.8404733,11 Cove Drive
SolePomodoro Trattoria Pizzeria,ChIJZe4WxL4Z2jERwk67e5M7K2s,restaurant,1.2467086,103.8421109,"31 Ocean Way, #01-14 Quayside Isle, Sentosa Cove"
Two Chefs Bar,ChIJyZWB1rUe2jERntFa-iAPgm4,restaurant,1.246958,103.8421961,"31 Ocean Way, # 01 - 11 Quayside Isle"
Miska Cafe,ChIJX9pR0bUe2jERJRzgcJSiH0M,restaurant,1.2472309,103.8422985,"31 Ocean Way, #01-07"
Greenwood Fish Market | Seafood Restaurant & Market in Sentosa,ChIJw4tLzbUe2jERvRFvI6krOhY,restaurant,1.2477209,103.8419157,"31 Ocean Way, #01 - 04 / 05"
"Sabio by the Sea, Tapas Bar & Grill",ChIJzci4NbQe2jER4h_j0lN_Rg0,restaurant,1.24805,103.8415831,"31 Ocean Way, #01-02"
WOOBAR,ChIJFQjWe7Ye2jERu8giPGXlWa4,restaurant,1.2463132,103.8421765,21 Ocean Way
Quayside Isle,ChIJ01fgzLUe2jERxlhvImcbZ7g,restaurant,1.2476808,103.8420723,31 Ocean Way
Maa Janki Rasoi Singapore,ChIJBVSgEwAf2jER_znZ3g6KVW4,restaurant,1.2440362,103.8427331,281 Ocean Drive
Latitude Restaurant & Terrace (ONE°15 Marina Members only),ChIJQUHLtbYe2jER2Mhu3PXf1cA,restaurant,1.2456358,103.8399005,"11 Cove Drive, #01-01 ONE°15 Marina Club, Sentosa Cove"
Fireside,ChIJicDpowMf2jERxlf5XQmczW8,restaurant,1.2466488,103.8421639,"31 Ocean Way, #01 - 15"
Blue Lotus Singapore (Chinese Eating House),ChIJIchqf7Ye2jERQcR7gSmdVjA,restaurant,1.246831,103.8421169,"31 Ocean Way, #01 - 13 Quayside Isle"
Gin Khao Bistro,ChIJ-RPjNLQe2jERA1utzj7rV3I,restaurant,1.2468982,103.8421771,"31 Ocean Way, #01-12 Quayside Isle"
"Little Farms Table, Sentosa",ChIJ756pFwsf2jERSX3p6a-SwwI,restaurant,1.24725,103.8400024,"1 Cove Avenue, #02-14 Sentosa"
Mykonos On The Bay,ChIJG7G_SbQe2jER-JTj3hW4Q80,restaurant,1.247028,103.8422206,"31 Ocean Way, #01-10 Quayside Isle, Sentosa Cove"
Common Man Coffee Roasters - Quayside Isle,ChIJsd_IuI8f2jER_5PfLUtb384,restaurant,1.2471056,103.8422382,"31 Ocean Way, #01-09"
Shaan North Indian Restaurant,ChIJjf0e-rMf2jERh_tGEBLxdjQ,restaurant,1.2471122,103.8422318,"31 Ocean Way #01-08 Quayside Isle, 31 Ocean Way, #01-08 Sentosa Cove"
Greater Lot by Cedele,ChIJlfux1rUe2jERXT8IofiDrH0,restaurant,1.2471817,103.8422286,"31 Ocean Way, #01-08 Sentosa Cove"
Rock Bar Burger & Steakhouse,ChIJs9zrSIEZ2jERPFV8lMbgNPk,restaurant,1.2474301,103.8422111,"31 Ocean Way, #01 - 06"
Artizan Concepts International Pte. Ltd.,ChIJz3xiNLQe2jERmXQQn6UpxYM,restaurant,1.2479283,103.8417309,31 Ocean Way
HELIOS93,ChIJcepDs0gf2jERw04RP5rJqGM,cafe,1.2455941,103.8398077,"#01-01 11 Cove Drive, Sentosa Cove"
The Naughty Chef | Best Coffee & Sandwiches in Sentosa,ChIJt2XPJxof2jERi1oIFrMEWEo,cafe,1.2479283,103.8417309,"31 Ocean Way, #01-23A Quayside Isle"
Bar Nebula,ChIJQWKDz7Ye2jERQE4BofGI1cs,bar,1.2452889,103.8399241,"11 Cove Drive #01-01 ONE°15 Marina Club, Sentosa, Cove"
WET Deck,ChIJeYw_uFwf2jERUYU55tmLT4o,bar,1.2461984,103.8423677,"Sentosa, 21 Ocean Way"
"ONE°15 Marina Sentosa Cove, Singapore",ChIJRSRB2rYe2jERmG7iI6JR2bA,clinic,1.2455711,103.8397398,"11 Cove Drive, #01-01, Sentosa Cove, Singapore"
W Singapore - Sentosa Cove,ChIJVV19ebYe2jERR-8J-QgvBlY,clinic,1.2462857,103.8423347,21 Ocean Way
The Coast at Sentosa Cove,ChIJ20ajObYe2jERwA6VOyYMkqc,clinic,1.2457088,103.843791,276-280 Ocean Dr
White Sails Yacht Pte Ltd,ChIJjQZU3rYe2jER_NRRyZojho0,clinic,1.2470117,103.8399041,"1 Cove Drive, Singapore"
The Oceanfront @ Sentosa Cove,ChIJBYzQr7ce2jERooeBHyrYT_4,clinic,1.2440362,103.8427331,281 Ocean Drive
Hong Seh Yachting Pte Ltd,ChIJD2-ytbYe2jERKOBTr8nXOgg,clinic,1.2460757,103.8398377,"11 Cove Drive, #02-01 One°15 Marina Sentosa Cove, Singapore"
Yacht Broker Singapore - Boat Lagoon Yachting,ChIJ6wZPs6si2jER6zO3qSU3K_M,clinic,1.2462326,103.8398143,"One 15 Marina Club, #01-17, 11 Cove Drive Sentosa Cove"
Nina Tantzen Photography,ChIJcaGYObYe2jERkByo8LtD8yo,clinic,1.245366,103.843637,
Premium Nautical Pte Ltd,ChIJ0d7pxLAZ2jERbvP_HPaYJOM,clinic,1.246916,103.839772,"1 Cove Avenue, #02-01 Sentosa Cove"
EagleWings Yacht Charters Pte Ltd,ChIJmZaep7Ye2jERVd-ZEzpPm4s,clinic,1.2469119,103.8398749,#02-13 Sentosa Cove Village Arrival Plaza
My Fishing Frenzy Academy,ChIJIXCwxPsX2jERIZ0S0GkG71c,clinic,1.2469693,103.8398874,"1 Cove Drive, Singapore"
7-Eleven,ChIJ__8PqLYe2jERBXDv3OC_VrQ,clinic,1.2469797,103.8396956,"1 Cove Avenue, #02-12 Sentosa Cove Arrival Plaza"
Wanderlust Adventures Yacht Rental Singapore,ChIJ2RUKtfsX2jER5SCrlWX6qeI,clinic,1.2470836,103.8398691,"1 Cove Drive, Sentosa Cove"
Neo Yachting,ChIJuavioLYe2jERJ01XrCJdGXY,clinic,1.2470948,103.8398787,"1 Cove Drive, #098497 Sentosa"
Sonamara,ChIJ5xSESbQe2jERSMRSWkt_o04,clinic,1.2468064,103.8421802,31 Ocean Way
Petpawroni Sentosa Cove,ChIJ3aEy0bUe2jERW2DpFEmUOCs,clinic,1.2471426,103.8423232,"31 Ocean Way, #01 - 18"
Quayside Isle Preparatory School,ChIJyZWB1rUe2jERq57akSOwjoI,clinic,1.2471352,103.8423525,"31 Ocean Way, #01-17"
Hera Hair Beauty,ChIJAeep0bUe2jERduAD5iY4C8c,clinic,1.2473973,103.842374,"31 Ocean Way, #01 - 20"
The Straits Wine Company,ChIJJ7qnSrQe2jERQ6SAJLa-zdQ,clinic,1.2478774,103.8418889,"31 Ocean Way, #01 - 24 / 25"
Jasons Deli Quayside Isle,ChIJt1bgNLQe2jERu4dhD9xP3V8,clinic,1.247979,103.8417573,"31 Ocean Way, #01-26/27 Quayside Isle"
Simpson Marine Singapore,ChIJFcOaxLYe2jERB6z2WCMua04,clinic,1.2481589,103.8413258,"31 Ocean Way, #01 - 01"
Sandy Island,ChIJP28DrrAe2jERxVrUYKIKtlg,clinic,1.241352,103.837474,18 Sandy Island
Cape Royale,ChIJy5Oh_Lke2jERKeTfBdz7V28,clinic,1.2416267,103.8401587,25 Cove Way
The Grapes Pte Ltd,ChIJQXGl4rMf2jERASz0-YHD-s0,clinic,1.2412275,103.8388238,"20 Cove Way, Sentosa"
HP Detailing (Sentosa Buggy/Car Wash),ChIJueWpgQAf2jERECZLKS78GZg,clinic,1.2417198,103.8398767,13 Cove Way
Supplylabs,ChIJcTDyLboe2jERSbl8ffud7GE,clinic,1.2415197,103.8390474,Cove Way
Seascape Condominium,ChIJw72sPH8f2jERHnjAMo8Z13M,clinic,1.241805,103.8391199,57/59 Cove Way
Sandy Bridge,ChIJWaRU3Fcf2jERUrzmgwstpR4,clinic,1.2424318,103.8383727,Sandy Island
yock fei kf property,ChIJHaUYa7oe2jERXXIkU_0LDws,clinic,1.2422924,103.8380723,Sandy Island
Singapore New Property Hub,ChIJZ5GQUrce2jERMOeGoEqMwI8,clinic,1.242889,103.8391369,13-17 Cove Drive
Baby Feeding and Beyond,ChIJYc005ocf2jERTd_4_emmnFw,clinic,1.2423899,103.8419117,295 Ocean Drive
Marina Collection,ChIJZ5GQUrce2jERofPE-b_sQ0M,clinic,1.2440107,103.8393661,"17 Cove Drive, #13 - 17 Marina Collection"
Pearl Bridge,ChIJ0_xfsyUf2jERMc4WYrums3s,clinic,1.2419166,103.836279,Pearl Island
Sentosa Swim Coach | Private & Group Swimming Lessons At Sentosa Cove,ChIJwxqI-J4f2jER1D7ein8DFR0,clinic,1.2442722,103.8398528,"17 Cove Drive, Marina Collection"
Vimana Prefabrication,ChIJfV6jJbce2jERe1nglTBAn5I,clinic,1.2442722,103.8398528,"17 Cove Drive, Marina Collection"
The Oceanfront,ChIJZ3EWHp0f2jERW6ykFg58VaY,clinic,1.2437298,103.8421237,287 Ocean Drive
Turquoise,ChIJwch5j7Ae2jEROOno-BOYFio,clinic,1.2429543,103.8367306,"55 Cove Drive, Turquoise"
popandbassdesign,ChIJwch5j7Ae2jEREsoinY6FFRc,clinic,1.242975,103.8366474,55 Cove Drive
Green Collection,ChIJCVH3iLAe2jERX6UQS6oIA0I,clinic,1.243056,103.8363173,40 Cove Drive
"deimogofokd@,goil.com",ChIJda22jCcf2jERPcM5bpyGIf8,clinic,1.2431113,103.8363529,Singapur
Big Red Industries Pte Ltd,ChIJkyUIfhU92jERJdCrgzHrUyc,clinic,1.2440394,103.8427329,"285 Ocean Drive, #01-16"
North Lock Gate,ChIJe7JrCsYf2jER6EDHse3zSnw,clinic,1.2449756,103.8422068,21 Ocean Way
Regal Boats Singapore,ChIJLXbNYqMf2jEResdDJDNvWQc,clinic,1.2455573,103.8398887,"11 Cove Drive, #01-18, #15 One Degree, Marina Club"
Sutl Marina Development Pte. Ltd.,ChIJD2-ytbYe2jER2U057JvsShI,clinic,1.2455587,103.8397701,"11 Cove Drive, Singapore"
Kingsford Construction Pte. Ltd.,ChIJVVXlI7se2jERIgwaZGzAQBk,clinic,1.2397043,103.8343515,97 Cove Drive
Cold Storage Sentosa Cove,ChIJsaiDp7Ye2jERGI5rv03RDCg,supermarket,1.2469797,103.8396956,"1 Cove Avenue, #02-07/10 Sentosa Arrival Plaza"
BASCO Boating,ChIJD2-ytbYe2jER_CQTYYnHI9w,school,1.2469693,103.8398874,"1 Cove Drive, Singapore"
Serapong Hut,ChIJR2o5PQAf2jERdUl5eWV584U,park,1.2481241,103.8367702,"62 Woolwich Road, Singapore"
Coppermountaintechnologies,ChIJh7S9LAAf2jERwq41E9JYDbU,clinic,1.2439903,103.8533317,Marina Bay - St.John Island
Inparco Singapore Pte Ltd,ChIJSbsmOO4F2jERCPVtwxmuOok,clinic,1.2612744,103.6241597,"15A Tuas South Place, Edge"
SIPO1,ChIJgTOZbJgH2jERPZXJZT05_k4,clinic,1.2627052,103.6221171,Unnamed Road
CHG Marine Services Yard @Tuas,ChIJlwItcwAH2jERchFSH6C94RE,clinic,1.2611546,103.6234505,Next to Inparco
NEA Tuas South Recycling Park Office,ChIJTdd-UwAH2jERsA8KYdvPme8,clinic,1.2626504,103.6231364,21A Tuas South Place
SPEB Shipyard,ChIJO7UR6KAH2jER32_xeNu_Ivo,clinic,1.261234,103.6241764,"15A Tuas South Place, Edge"
Banyan Marine (S) Pte Ltd,ChIJIX4H-hAH2jERr6ocj4AM0YE,clinic,1.2613741,103.6243897,"13A Tuas South Place, Edge"
Tuas TSPD Site Office,ChIJGTIWMwAH2jERKaWdQlqF2Sc,clinic,1.2647028,103.6198305,Tuas South Avenue 16
Toa Corp Site Office,ChIJ4yR2OQAH2jERlfqX30cf3AE,clinic,1.2648525,103.6198376,
Caisson Casting Yard,ChIJSV7wFLYG2jERA6DEZhSGcfw,clinic,1.2585564,103.6144211,Tuas South Boulevard
Green Recycling pte ltd,ChIJBa0rXQAH2jERG_yZHT6JQQU,clinic,1.2613725,103.6258877,Tuas South Avenue 16
Pacific Logistics Group (PLG) Tuas HQ Building,ChIJfw729NMH2jERjtPMfkVi8vg,clinic,1.2657326,103.6225357,"31 Tuas South link, #4, Singapore"
Aramex,ChIJBbUi0JUH2jERhCMTqEfAuDI,clinic,1.265717,103.622599,"31 Tuas South Link 1, #4 , Level 5"
Ashui Vending Machine,ChIJT2HerFYH2jERzpjRJWhN8fY,clinic,1.266239,103.6224534,"31 Tuas South Boulevard, Link 4, inside PLG Building"
Sembcorp Marine Tuas Boulevard Yard Medical Centre,ChIJ0VDWbbgG2jERJ1aaLJAtiHY,clinic,1.2632908,103.6141814,
31 tuas south link 4,ChIJ4WJtdI8H2jERM-8UunRgLQo,clinic,1.2663988,103.6226744,
Air Liquide Singapore - IPAG HUB,ChIJFVakuGkH2jER--xFLKBGLgA,clinic,1.2663852,103.623471,"1 Tuas South Place, Singapore"
PSA Supply Chain Hub (Site Office),ChIJWwUCWQAH2jER_tTntVDFFOU,clinic,1.2681349,103.6190355,
Soilbuild PSCH Site Office,ChIJKdCJVgAH2jERTZw3zeLRc8E,clinic,1.2681122,103.6187651,Tuas South Way
PSA Supply Chain Hub (Gate 2),ChIJhy7xDAAH2jERXGBaOt8Hpl0,clinic,1.2683371,103.620251,
Shamim,ChIJC7GaPgAF2jERYXU-YkZbVbY,clinic,1.2616725,103.6399133,Tuas South Walk
Tuas TOL,ChIJx1EDjlIF2jER1tBq5EzdaME,clinic,1.2648473,103.6402636,Chang hua tuas south TOL
CH TOL,ChIJ8dHEWwAF2jERVDrPoQLfMJo,clinic,1.2651538,103.6397581,"Singapore, Chang hua tuas south TOL"
Well Tec,ChIJIzy-fQAF2jERo1IaFCq7YKY,clinic,1.2674999,103.6387981,
OBAYASHI TENGAHC3C7 PRECAST YARD 1,ChIJBWqpIwAF2jERqEwVA1oZ3H0,clinic,1.267727,103.638381,"6 Tuas South Street 15, Singapore"
LAMP POST 104,ChIJ48ryEwAH2jERLM8d6D18Z-A,clinic,1.2679437,103.6367428,"104 Tuas South Way, Lamp post"
ジュロン グランドフレア,ChIJacqfOccF2jERjRSnZNoyyHg,clinic,1.2619377,103.6627463,
ExxonMobil SCP Tembusu Terminal Entrance,ChIJmZpeP8sF2jERIKKMuSYMNoA,clinic,1.2547857,103.6608055,101 Banyan Avenue
岛尾巴载人,ChIJvdzlHAAF2jERhXuLa9bJi6U,clinic,1.2565813,103.6653748,"101 Banyan Avenue, Singapore"
Evonik Methionine SEA Pte Ltd,ChIJZUUopM8F2jERJf8JthyiqaI,clinic,1.25584,103.66558,101 Banyan Avenue
iJooz - Pure Fruit Juice On the Go,ChIJSUoSecYF2jERHQJ62QSwLDE,clinic,1.2639796,103.6675124,"23 Tembusu Road, SAR 2 ExxonMobil, Singapore"
SAR2 Exxonmobil Asia Pacific Pte Ltd,ChIJzwXpJwAF2jERGj7-igPCrZo,clinic,1.263325,103.6681797,"23 Tembusu Road, Singapore"
Thomson Kitchen Indonesia,ChIJ_f_PMnsE2jERBGXbCyl4Uio,cafe,1.2619028,103.6747554,24 Banyan Drive
Katoen Natie Singapore (Jurong) Pte Ltd,ChIJSXFvkGQE2jERIVxzaBBVJ0g,clinic,1.2613494,103.6774902,"1 Banyan Place, Singapore"
U&P Jurong Island,ChIJn_IoRnwE2jERCaysWymRheQ,clinic,1.2598062,103.6777276,2 Banyan Place
Pesko Engineering Pte Ltd,ChIJs234OnsE2jERi2_Mje3Zg0A,clinic,1.2612588,103.6747824,42 Banyan Drive
Vopak Terminals Singapore Pte Ltd,ChIJBwljxGME2jERLL5wVt3UNC0,clinic,1.265848,103.678661,"51 Banyan Avenue, Singapore"
Banyan Fire Station,ChIJo-Xp9ngE2jERcDeMoXcwjbg,clinic,1.2541333,103.6741698,15 Banyan Road
Sin Hoe Seng Oil Pte Ltd,ChIJn_IoRnwE2jERiZ-Xj3VRdI0,clinic,1.258578,103.678953,2 Banyan Place
ZEON Chemicals Singapore Pte Ltd,ChIJObKEOgAF2jERouQdJydi0xc,clinic,1.2611198,103.6759282,"100 Banyan Drive, Singapore"
利通行,ChIJxb7uge0F2jERQdz3m0vKwhM,clinic,1.2552364,103.6808162,121 Banyan Drive
Jurong Island Maintenance Hub Indonesia,ChIJRTqwNXsE2jERuImXm4Ijdd0,clinic,1.2617063,103.675153,20 Banyan Drive
CCIC Singapore Pt.e Ltd.,ChIJLcgbN3sE2jERpUAvmXYKf8Q,clinic,1.26135,103.674967,"48 Banyan Drive, Singapore"
Aipec,ChIJD1FCOnsE2jERi1hGBcdb0sY,clinic,1.261266,103.674864,44 Banyan Drive
Sqo Dynamics Pte. Ltd.,ChIJG50NLnsE2jERNi_FAoBkf3o,clinic,1.261607,103.674546,
Multiheight Scaffolding Site Office,ChIJVY3UEucF2jER-JcBdFNXawM,clinic,1.2626491,103.6742594,56 Banyan Drive
GW & GCM Site Office Store,ChIJEQJUfQAF2jER269J2ntSGD0,clinic,1.2614938,103.6738293,34 Banyan Drive
ALTRAD Hertel Banyan site office,ChIJ43NBrEwF2jERv6KrCJC2U1o,clinic,1.2663337,103.6788579,Singapore
Assure Engineering and Construction Pte Ltd (Banyan Site office),ChIJySrGIgAF2jERdR-4q3K-MSI,clinic,1.2665716,103.6792008,"51 Banyan Avenue, Singapore"
Panunited,ChIJ1SJcSvgF2jERXvZ_Jo6YsFM,clinic,1.2609773,103.6733746,"24 Banyan Drive, Singapore"
ONESTOP Complete Services. Site Office,ChIJp-Du03oE2jERFgl4k2xiXdk,clinic,1.2616946,103.6734579,24 Banyan Drive
Best Fit Engineering PTE LTD site office,ChIJPcG-aAAF2jER1WhHXBD5RyU,clinic,1.2668338,103.6793635,Banyan Avenue
Arkema Symphony Plant,ChIJ-Xekpw4F2jERpbX5lOLX2Ic,clinic,1.2663924,103.6770996,38 Banyan Avenue
Tuas Power Multi-Utilities Complex (Site 2),ChIJoXDvMGQF2jERaf85SPt_x_s,clinic,1.2651482,103.6735564,Tembusu Drive
lsland,ChIJfe8ItkkF2jERHJcaEHWHsVk,clinic,1.2559397,103.6726966,Banyan Road
Sembcorp Banyan Energy Storage System,ChIJGckkeSsF2jERzPaFaXukkYw,clinic,1.2585653,103.6714205,8 Banyan Road
Banyan Caverns Storage Services PTE LTD,ChIJhzPxG08wq0sRIZH-ZotIy7A,clinic,1.2540403,103.6866628,1 Banyan View
KJM CURRY HOUSE & RESTAURANT,ChIJDeLY65UE2jERLYIiZj1snS4,restaurant,1.2673385,103.704543,3 Sakra Road
Lucite International,ChIJ2WX3-ZkE2jEReHS9AKDRi8c,clinic,1.2586995,103.703514,"31 Sakra Avenue, Island , Singapore"
Kuraray,ChIJa6ePnZgE2jERoYcL1ZLiPT8,clinic,1.258931,103.7058272,10 Sakra Avenue
Acez Instruments Pte Ltd,ChIJEZl6N5oE2jERfCe53aucGOA,clinic,1.2587162,103.6993694,"3 Sakra Road, #01-05, Oasis @ Sakra"
ScHaass Singapore Pte Ltd,ChIJV1JoZJcE2jER9Ze_AvyVrmc,clinic,1.262145,103.701893,"17 Sakra Road, Pulau Sakra"
Air Products Singapore Pte Ltd,ChIJhRIiA5kE2jERho7unJTbAqM,clinic,1.2589943,103.702978,41 Sakra Avenue
Sumitomo Seika Singapore (Site Office),ChIJGdD5OpgE2jERdTHy3dF-zvo,clinic,1.2614852,103.7028732,17 Sakra Road
Polyxylenol Singapore Pte Ltd,ChIJ01r1NpoE2jERwvaCfHcaiFs,clinic,1.259579,103.6958889,20 Sakra Road
Singapore Methyl Methacrylate Pte. Ltd.,ChIJlbmZXJgE2jERjx0nzTwrbK8,clinic,1.259936,103.703978,Plot A15773 Pulau Sakra
INEOS Phenol Singapore,ChIJLyNDo5oE2jERPPCUH7w5dM0,clinic,1.263143,103.6969612,101 Sakra Avenue
Sumitomo Chemical Pte Ltd,ChIJIwlAG6IE2jERR_sGuJWAr14,clinic,1.2583679,103.7059422,"17 Sakra Avenue, Singapore"
Sembcorp Air Products (Hyco) Pte Ltd,ChIJE6dj7JkE2jERxWUtq61oy9k,clinic,1.2574474,103.7065601,"Jurong Island, 71 Sakra Avenue"
Vopak Singapore - Sakra Terminal,ChIJ3bEejqEE2jERGLQeM3PwzvA,clinic,1.2564963,103.7076545,3 Sakra Avenue
LIM KIM HAI ELECTRIC @ JURONG ISLAND,ChIJRdB_6ZUE2jERWKnAQSOoMBg,clinic,1.2673279,103.7044915,"3 Sakra Road, #02-04 Oasis@Sakra, Jurong Island"
Chevron Oronite Pte Ltd,ChIJS_v4z5sE2jERNxPuFH6etlw,clinic,1.2578619,103.698458,21 Sakra Road
Subsystem No. 17,ChIJFeVXKwAF2jERWP14RcqG8WE,clinic,1.259592,103.7003685,"81 Sakra Avenue, Singapore"
Local Control Room,ChIJ_yjdRAAF2jERtURZVzRSIvA,clinic,1.2601437,103.7005815,"81 Sakra Avenue, Singapore"
ELV Room,ChIJUTK2KgAF2jERhfRipiID_60,clinic,1.2601826,103.7006019,"81 Sakra Avenue, Singapore"
Subsystem No.30,ChIJ4_SqIAAF2jER8rGGJhMPja8,clinic,1.2595975,103.7005143,"81 Sakra Avenue, Singapore"
Chemical Industries (Far East) Ltd,ChIJg9m6B5oE2jERhIWt0vknQ-A,clinic,1.2616987,103.6993665,91 Sakra Ave 627882 Sakra Avenue
Asahi Kasei Plastics Singapore Pte Ltd,ChIJky2W4ZoE2jER56DGNS1nzQo,clinic,1.2592468,103.6982169,20 Sakra Road
SAK,ChIJGeBz1QgF2jER11unAgJuatA,clinic,1.2610239,103.7018378,Singapore
Sembcorp Industries Ltd - SUT,ChIJ7VuGWZ4E2jERFV-kXTNz6SY,clinic,1.2596005,103.7025235,"51 Sakra Avenue, Jurong Island"
SMAG(Singapore MMA and Acrylic Group) West Gate,ChIJcTJhTZYE2jER0YW_YR_J0MI,clinic,1.2621525,103.7018583,17 Sakra Road
PUB Jurong Island Sewerage Treatment Plant 1,ChIJz7u2aQAF2jERG95RQoOZraw,clinic,1.2629174,103.6993141,30 Sakra Avenue
SEK3 Project,ChIJj_exZAAF2jERgYx5Z_nzGWk,clinic,1.2630699,103.7011066,
Scec Maintenance (s) Pte Ltd,ChIJGdD5OpgE2jERtBWrJqr1JfU,clinic,1.261057,103.703716,17 Sakra Road
Pulau sakra Exchange,ChIJUyytqfsF2jERfvtdVU6n_2g,clinic,1.2631296,103.7025878,"15 Pulau Sakra, Singapore"
Senko International Logistics Pte. Ltd.,ChIJ01r1NpoE2jERYb8j8IKrrFM,clinic,1.2595175,103.6959,20 Sakra Road
Islands food wast,ChIJd3k_ewAF2jERbvBQ3irulTE,clinic,1.2642219,103.7018487,"10 Sakra Road, Singapore"
Sembcorp EfW Plant,ChIJsf4_ZwAF2jER2ygvGViDjBQ,clinic,1.2554939,103.6980408,"52 Sakra Road, Singapore"
Keppel Sakra Cogen 600 MW CCGT Plant,ChIJ2TMglkwF2jER8ChixH6mGAQ,clinic,1.2639414,103.6959004,"121 Sakra Avenue, Singapore"
"DIC Alkylphenol Singapore Pte., Ltd.",ChIJJdjX0RQZ2jERRwj2DwfFGQo,clinic,1.2544537,103.6986449,"Jurong Island, Sakra Avenue, Singapore"
Celanese (S) VAM Pte Ltd,ChIJV1brP58E2jER4of2VKIgHLg,clinic,1.255997,103.704233,21 Sakra Avenue
The Polyolefin Company (Singapore) Pte Ltd,ChIJKRkx1bYE2jERfIf-kvklD4Y,clinic,1.266393,103.720348,401 Ayer Merbau Road
Chevron Phillips Singapore Chemicals Pte. Ltd.,ChIJh1Px8ccE2jER8yKw80qgpBc,clinic,1.2619092,103.7209013,500 Ayer Merbau Road
PCS Medical Centre,ChIJUXJaz7ME2jERuJyTyaBjUG8,clinic,1.2652138,103.7227249,
A S K Singapore Pte. Ltd.,ChIJUXJaz7ME2jERQf8o84sPSfE,clinic,1.264568,103.724163,100 Ayer Merbau Road
Draco Systems Pte. Ltd.,ChIJUXJaz7ME2jERrB4wWgW0Jcs,clinic,1.264568,103.724163,100 Ayer Merbau Road
Petrochemical Complex Contractors Association,ChIJUXJaz7ME2jERQOvnuKg12UA,clinic,1.264568,103.724163,100 Ayer Merbau Road
Tango 3,ChIJmUkl19oF2jERUk5_8oiSjYg,clinic,1.2601135,103.7136717,1A Sakra Avenue
Tanjong Perpat Mati,ChIJVdujq0wF2jERSg6fvHX8bmY,clinic,1.2606428,103.7129937,Jurong Island
TPC Lab,ChIJMVUNh2oF2jERMcWgeE2yHAE,clinic,1.2661255,103.7159878,Jurong Island
TPC Maintenance Building,ChIJbaPgMKEF2jERWhbdteQWaYI,clinic,1.2671825,103.7236166,Singapore
Shell Production Unit 3,ChIJ9_UVdrQE2jERIR1a7ISjqFc,clinic,1.2666022,103.7248382,650 Ayer Merbau Road
Aster Chemicals & Energy Pte Ltd (EOG-2) @ Merbau Avenue,ChIJCbgiMAAF2jERyHHAhsaFWx0,clinic,1.2664571,103.7250576,
Pasir Panjang Terminal 5 Canteen,ChIJKSnlY5ob2jERYrd3VyCJCuA,restaurant,1.2636803,103.7858003,Singapore
Queenstown,ChIJFViwNFIa2jERsKTarqz3AAU,clinic,1.3012507,103.7981323,Singapore
Pasir panjang,ChIJq_LdHwAb2jERbRNH7tgMf5g,clinic,1.257862,103.7808312,Singapore
PSA Pasir Panjang Terminal Substation (SS35W1),ChIJNW-QOgAb2jER8QNWfQ2EeA8,clinic,1.25797,103.782162,Pasir Panjang Terminal Avenue 8
The International Seafarers' Drop-in Centre,ChIJo0KlNxEb2jERQMpvYJRTkAY,clinic,1.2638597,103.7858898,Pasir Panjang Terminal Avenue 8
PSA Pasir Panjang Terminal Building 5,ChIJQS7yCwAb2jER3R5fgJZJ47g,clinic,1.2640132,103.7858459,Pasir Panjang Terminal Avenue 8
ASU,ChIJC6ZUlo8b2jERpVxZoqhzK6E,restaurant,1.2679766,103.8004316,30 Labrador Villa Road
SHàN,ChIJ-f0lUcMb2jERAkTVTcLsTAU,restaurant,1.2679766,103.8004316,"30 Labrador Villa Road, Singapore"
Labrador House,ChIJ0VX2Xogb2jERaISeQ8Vwzvc,restaurant,1.2679766,103.8004316,30 Labrador Villa Road
Fort Siloso,ChIJWbbHWvAb2jERpIJ56UdMj_E,clinic,1.259363,103.8086242,Siloso Road
"Promenade, Labrador Park",ChIJkw7ZYgAb2jERxzWF53Z5kXY,clinic,1.2639787,103.8033148,
LP Mini Playground,ChIJfaws2Mwb2jER06pVcQMgtj8,clinic,1.2626436,103.8049087,Singapore
Machine Gun Post,ChIJQeoKcu4b2jERGGY-wHgSVuM,clinic,1.2626573,103.8049798,"12 Port Road, Singapore"
Labrador Obelisk,ChIJt9r7K1Ub2jERGwLCusqxscE,clinic,1.2627304,103.8049419,Labrador Villa Road
Berlayer Beacon,ChIJwxApE-4b2jER3un-FM9H1Bg,clinic,1.2623774,103.8051246,Labrador Villa Road
Labrador Jetty,ChIJb3XKnuwb2jER6h31hRDvMRg,clinic,1.265668,103.8001149,Western end of Labrador Park
"BBQ Pit area, Labrador Park",ChIJ0cnTQAAb2jERmX7da1XAqwk,clinic,1.2652973,103.8020434,
Keppel Coastal Trail,ChIJC0EUSgAb2jERVKQ5fT1efgs,clinic,1.2654905,103.8017592,Singapore
Labrador Park Car Park B,ChIJPV7SfiMb2jERscqDnI-MdXY,clinic,1.2637956,103.8043555,Labrador Villa Road
Labrador Park Playground,ChIJnTS6tfsb2jERkjNZfnHAQhw,clinic,1.2652155,103.802668,91 Labrador Villa Road
Public Toilet,ChIJt4QPGzMb2jERS2Zf95yi5BE,clinic,1.2645927,103.8036688,91 Labrador Villa Road
Labrador ATMB Battery,ChIJr9txZe4b2jERqHERBwTSLtM,clinic,1.2633754,103.8048424,"12 Port Road, Singapore"
The Wall of The Brick Cutting,ChIJ1akUlQ4b2jERrUunnoHnJVE,clinic,1.2641439,103.8042626,"12 Port Road, Singapore"
Dragon's Teeth Gate,ChIJw_-_uu4b2jERSv64-VRfzMg,clinic,1.262899,103.8053352,8 Port Road
The Fourth Gun Position,ChIJY1QFmLgb2jERof2E6e5t8Tc,clinic,1.2652283,103.8039853,
Bukit Merah,ChIJIwn0IWIZ2jERJQC2MB3zSkI,clinic,1.2819046,103.8239182,Singapore
Gun Emplacement IV,ChIJIS38fhUb2jERrLsXizwXND4,clinic,1.2656496,103.8034728,Port Road
Gunners of Labrador Battery Tribute,ChIJDdLZkusb2jERXYMzDYz6N2M,clinic,1.265656,103.8035709,Unnamed Road
Tanjong Rimau,ChIJlU5srvEb2jERaUFaxppGmGo,clinic,1.2593828,103.8067155,Straits View
Berlayer Shade,ChIJ2_Di3Dsb2jER25Bj5Cx5tt0,clinic,1.2639896,103.805507,Port Road
The 1892 Storeroom,ChIJ5wxqZpYb2jERnC4O8a1bk9U,clinic,1.2654811,103.8040245,"18 Port Road, Singapore"
Car Park 2 & Coach Park,ChIJ75F--Jwb2jER24EGRJXKqNQ,clinic,1.2649054,103.8047454,Port Road
Labrador Nature Reserve,ChIJoy3rj-sb2jERA_wMVazFAiI,clinic,1.2665094,103.8020649,91 Labrador Villa Road
Zaw Zaw tun,ChIJ1UvXIQAb2jER-ZRct55MILk,clinic,1.2635305,103.8058907,Singapore
Nature Reserve Viewpoint,ChIJATmp7M4b2jERyN7W0RHdCAo,clinic,1.2668114,103.8017108,
Fire Control System,ChIJtwmjNCwb2jER8ZGUyIl5o1w,clinic,1.2663509,103.8030443,"Unnamed Road, Gunners of Labrador Battery Tribute"
The Tunnel,ChIJNXIysQkb2jERhP_iApv6hOw,clinic,1.2665651,103.8030394,"Unnamed Road, Gunners of Labrador Battery Tribute"
Antelope Express & Marketing,ChIJrY2tre4b2jERjM_CizOWLPk,clinic,1.2657289,103.8047977,8 Port Road
Labrador Dragonfly Pond 拉柏多蜻蜓池,ChIJ8WpI92wb2jERGU-oCJrbpRM,clinic,1.2664162,103.8040899,"18 Port Road, Singapore"
Tank storage,ChIJ0Um4BQAb2jERT40Yb3Tnb5E,clinic,1.2654404,103.8053435,"Port Road, #74/67v"
"Lookout Deck, Labrador Park",ChIJN8MhIQAb2jERCm74cVlSkUk,clinic,1.2647047,103.8065522,
Former BP Refinery Location,ChIJDS09GwAb2jERxOt5LDIl92s,clinic,1.2655259,103.8059759,Port Road
PUB Port Road Pump Sump,ChIJ8c3FIwAb2jERMCr8aYekBx0,clinic,1.2674777,103.8033523,Port Road
Labrador House Carpark,ChIJSeN0HQAb2jERA-MrF7XNeoo,clinic,1.2682206,103.8001288,Labrador Villa Road
LABRADOR VILLA,ChIJn61xXxob2jERWqA54Y2WpNQ,clinic,1.2688912,103.800933,20 Labrador Villa Road
VivoCity,ChIJK7xLl1gZ2jERP_GdUY9XNLo,shopping_mall,1.2647139,103.8231658,1 HarbourFront Walk
"DFS Singapore Cruise Centre, Harbourfront",ChIJqyZyPOMb2jERKr1XIGNJ-Ec,shopping_mall,1.2642175,103.8203582,"1 Maritime Square, #01-17/20 Singapore Cruise Centre"
HarbourFront Centre,ChIJ5Qx1aOIb2jERwQsRlRdHaWM,shopping_mall,1.2643689,103.8200727,1 Maritime Square
The Forum,ChIJkbLj5_0b2jERx4X-HukR9gs,shopping_mall,1.2570472,103.8202366,8 Sentosa Gateway
EMME Visioncare,ChIJ34v-Alwb2jERPN7xtcLmuyU,shopping_mall,1.2640923,103.819917,"1 Maritime Square, #02-63 HarbourFront Centre"
MBT VivoCity,ChIJ1RcVLRsb2jER3mNBVHlVuhw,shopping_mall,1.2650013,103.8209162,"HarbourFront Walk, #02-54, Singapore"
Crocodile Boutique,ChIJ0QCTfjcZ2jERigADSq7akLo,shopping_mall,1.2649567,103.8215746,"1 HarbourFront Walk, #02-237 VivoCity"
HarbourFront Bus Terminal,ChIJk7iZW-Ib2jERZDBitqmfGE0,bus_station,1.2638969,103.8197393,1 Maritime Square
Opp HarbourFront Int,ChIJLwgLh-Eb2jERHnlGJQXX68I,bus_station,1.2658027,103.8193287,Singapore
Opp Village Hotel,ChIJ-Vp02_8b2jERJUo8QYr2wxw,bus_station,1.2533225,103.8211946,Singapore
Sentosa Coach Park,ChIJbbcmnf8b2jERuhtMESeTzQ8,bus_station,1.2524405,103.8188912,Beach View Road
Beach Station,ChIJ0YqrYgAc2jERBD9hNa5OwMY,bus_station,1.2516029,103.8185535,Singapore
Beach Stn Ter,ChIJa9zhhgAc2jERnqxmdqOTd0U,bus_station,1.251427,103.818542,Singapore
HarbourFront Station,ChIJqQjOtOMb2jERI4XEmcnYEVw,transit_station,1.2644666,103.8186813,Singapore
Harbourfront,ChIJGXXAPOMb2jERysallYC1SaY,transit_station,1.262067,103.8179,1 Maritime Square
Resorts World Sentosa (Basement 1),ChIJ24BrAP4b2jER4A1ZR8SA_1U,transit_station,1.25641,103.821523,Singapore
Resorts World Station,ChIJL1TlGf4b2jERvkpuRRooqM8,transit_station,1.2555267,103.8209421,Singapore
Sentosa Express,ChIJX6GNF_4b2jERQYrGqJ_nui8,transit_station,1.255383,103.820863,32 Sentosa Gateway
Sentosa Station,ChIJk4N1v_4b2jER1_7FC6Ox6RE,transit_station,1.25538,103.8171,Singapore
Imbiah Lookout Station,ChIJF8OFxv4b2jER-6VVWraNRe0,transit_station,1.2550608,103.8167614,Singapore
HarbourFront Stn/Vivocity,ChIJwU2crlgZ2jERWALjP1TFqzE,transit_station,1.265506,103.8222182,Singapore
Merlion,ChIJ4VZTVf4b2jERtA6F2Eu3-gE,transit_station,1.25414,103.81875,Singapore
Imbiah Lookout,ChIJzZwPyv4b2jER712jEO104GM,transit_station,1.2553322,103.8161991,Singapore
Harbourfront Stn Exit A,ChIJ0fNaieEb2jERjMChWui9zOU,transit_station,1.2660512,103.8199161,Singapore
Imbiah Station,ChIJhfUKsv8b2jERUoLSIGtB0nE,transit_station,1.25391,103.819459,Singapore
VivoCity Station,ChIJa-0LxlgZ2jER7v36mKldgGs,transit_station,1.26517,103.82342,Singapore
Opp VivoCity,ChIJk1BfUl8Z2jERGFfUlRu_E2E,transit_station,1.2659557,103.8222641,Singapore
Siloso Beach Resort,ChIJhdUpIfkb2jERwZxf-DyWXNA,transit_station,1.25431,103.81471,Singapore
Opp Amara Sanctuary Resort,ChIJbxTvQ1UZ2jEReF8NOC2-SD4,transit_station,1.2527215,103.8229987,Singapore
Caribbean at Keppel Bay,ChIJ7a5LOuEb2jERUP_wz4sZ2Vk,transit_station,1.2674051,103.8167644,Singapore
Skypark Sentosa by AJ Hackett,ChIJfymXDPkb2jERfS19yiQhBlk,transit_station,1.25525,103.81335,Singapore
Gogreen Segway Eco Adventure,ChIJUa2ySv8b2jERfOeBF2NUs0U,transit_station,1.25295,103.81583,Singapore
Opp Sapphire Pavilion,ChIJWwE4nfkb2jERlH83D71VNDY,transit_station,1.25589,103.81284,Singapore
Bikini Bar,ChIJFfE2S_8b2jERE1XcIX72CwY,transit_station,1.25278,103.81586,Singapore
Resorts World Sentosa,ChIJhVF18lQZ2jERA5C_EHKdiAo,transit_station,1.2535442,103.8257255,Singapore
Mega Adventure,ChIJ2Tlaj_kb2jERP7DTs4wxMKg,transit_station,1.25618,103.81218,Singapore
Siloso Point,ChIJOc64I_ob2jERpJ9PCq4Mobo,transit_station,1.25689,103.81173,Singapore
SUSHI TEI,ChIJQ7ONulgZ2jERlc6eQgG0Qn4,restaurant,1.2634711,103.8213037,"1 HarbourFront Walk, #02 - 152"
Indrawan Cafe,ChIJVf_IIOMb2jERKRfIV0egmyc,restaurant,1.2642133,103.8198342,1 Maritime Square
Subway,ChIJAybKOeIb2jERktSah2QULcE,restaurant,1.2650208,103.820034,"1 Maritime Square, #02-82 HarbourFront Centre"
Brotzeit German Beer Bar and Restaurant - VivoCity,ChIJQ7ONulgZ2jERMHtVg8e4VHg,restaurant,1.2634018,103.8220077,"1 HarbourFront Walk, #01-149 VivoCity"
Dian Xiao Er (VivoCity),ChIJQ7ONulgZ2jER2q7WpCC3Ey8,restaurant,1.2634296,103.8219625,"1 HarbourFront Walk, #02-138 9 VivoCity"
PastaMania - Italian Casual Dining @ HarbourFront Centre,ChIJZTd8Z-Ib2jERbWmTLXef5Mk,restaurant,1.2638161,103.8203069,"1 Maritime Square, #02-05/06/07 HarbourFront Centre, Singapore"
Marché VivoCity,ChIJQ7ONulgZ2jERGh2R3w9tHSo,restaurant,1.2644513,103.8213732,"1 HarbourFront Walk, #03 - 14 VivoCity"
Tajimaya Yakiniku @ VivoCity,ChIJQ7ONulgZ2jER5-6qTnhN3eU,restaurant,1.2635464,103.8228073,"1 HarbourFront Walk, #01-102/103"
Suki-Ya at VivoCity,ChIJVT30pVgZ2jERpOyZu_-R9ps,restaurant,1.2633994,103.823329,"1 #01-102, HarbourFront Walk, #103 VivoCity"
Privé @ Keppel Bay,ChIJ4-mQqOUb2jERZwLP65aq0To,restaurant,1.2640047,103.8124338,"2 Keppel Bay Vista, #01-03 Marina at Keppel Bay, Singapore"
Yoshinoya - HarbourFront,ChIJz7WdaeIb2jERLn273bOanNc,restaurant,1.2646661,103.8200612,"1 Maritime Square, #02-72/73 HarbourFront Centre, Singapore"
KT’s Grill,ChIJUbkv81UZ2jERh8rfLVajmvE,restaurant,1.2549587,103.8217898,"8 Sentosa Gateway, Universal Studios"
Soup Restaurant 三盅两件 - VivoCity,ChIJQ7ONulgZ2jER98DVQWrxa0c,restaurant,1.2634383,103.8218945,"1 HarbourFront Walk, #02-141"
EAT.,ChIJZTd8Z-Ib2jERZohM7c0U-PI,restaurant,1.2649045,103.8204508,"1 Maritime Square, #01-84b Harbourfront Centre"
Old Chang Kee,ChIJ0RT0B-Ib2jERmgFjdw2qONI,restaurant,1.264859,103.8226244,"1 HarbourFront Walk, #B2-K15 VivoCity, Singapore"
Royal Albatross - Luxury Tall Ship,ChIJi454DP0b2jERDzqAZnYncek,restaurant,1.258897,103.819902,8 Sentosa Gateway
Toast Box (The Forum),ChIJEZY1P_4b2jERvrZxBK5XDlk,restaurant,1.2569444,103.8202342,"26 Sentosa Gateway, #B1-203/204 The Forum"
Streats (Resorts World Sentosa),ChIJw5eRIlYZ2jERFOjkW7m80k8,restaurant,1.2567226,103.8199262,"26 Sentosa Gateway, #01-205"
The Bay Restaurant,ChIJT0qQtv0b2jER-bVlf4iazQ4,restaurant,1.2579102,103.8174067,"8 Sentosa Gateway, Sentosa Island"
Syun,ChIJ-zgVQv4b2jERecxX2O3ERyM,restaurant,1.2564647,103.8209869,"L2, Hotel Michael, 8 Sentosa Gateway, Resorts World Sentosa"
Starbot Café,ChIJ-eGhoVUZ2jEREqsO5URtcn4,restaurant,1.2564647,103.8209869,"8 Sentosa Gateway, Universal Studios"
Ocean Restaurant,ChIJJyodxP0b2jERvwv6K_-NPY8,restaurant,1.2564647,103.8209869,"B1M, Equarius Hotel, 8 Sentosa Gateway, Resorts World Sentosa"
Feng Shui Inn,ChIJIZfT4P0b2jERv45K2bx1LzI,restaurant,1.2564647,103.8209869,"L1, Equarius Hotel, Sentosa Gateway, Resorts World Sentosa, 8"
Mel’s Drive-in,ChIJ-eGhoVUZ2jERke_c5wvglEU,restaurant,1.2564647,103.8209869,"8 Sentosa Gateway, Universal Studios"
Poulet - VivoCity,ChIJ19gzfOIb2jERiPK282bwI88,restaurant,1.2636547,103.8211921,"1 HarbourFront Walk, #01 - 175 / 176 / 177"
Tangerine,ChIJIZfT4P0b2jER_PA2asrfjD4,restaurant,1.2588124,103.8161991,"L1 Equarius Hotel, Sentosa Gateway, Resorts World Sentosa, 8"
Ramen Hitoyoshi,ChIJA_33Z-Ib2jERUPhVR3rK2JY,restaurant,1.2642175,103.8203582,"1 Maritime Square, #01-99 1st Floor HarbourFront Centre, Singapore"
Java Kitchen Pte Ltd,ChIJQ7ONulgZ2jERR7vifixFn2c,restaurant,1.2640843,103.8223833,1 HarbourFront Walk
Bornga Singapore @ VivoCity,ChIJDyS7oFgZ2jERDdWbcLueCIM,restaurant,1.2633827,103.8226903,"1 HarbourFront Walk, #02-123 /124"
MOS Burger,ChIJJ8r1XOIb2jER2hkLuBrMJqQ,restaurant,1.2643389,103.8201453,"1 Maritime Square, #01-95/96/97 HarbourFront Centre, Singapore"
Wing Choi™,ChIJXYbboKwe2jERsnIuBL15Fv4,restaurant,1.2556377,103.8195961,8 Sentosa Gateway
Monster Curry - Vivo City,ChIJFR1DMJEZ2jER97UAiPBF-NI,restaurant,1.2634568,103.8228146,"1 HarbourFront Walk, #02-126/127/129 VivoCity, Singapore"
Paradise Dynasty,ChIJDyS7oFgZ2jERkHVAD9YPb2M,restaurant,1.2634367,103.8228488,"1 HarbourFront Walk, #02-128 / 130, Singapore"
Quantum Group Pte. Ltd.,ChIJQ7ONulgZ2jER8roZP4yXMFY,restaurant,1.2648856,103.8218299,"1 HarbourFront Wlk #03-07A, VivoCity 098585"
Toast Box (VivoCity B2),ChIJFZzpo1gZ2jERnlP6DqU0GjU,restaurant,1.2645746,103.8217174,"1 HarbourFront Walk, B2-34 VivoCity, Singapore"
McDonald's Vivocity,ChIJgY71BEIZ2jERwrDTyHjdHJs,restaurant,1.2648464,103.8214305,"1 HarbourFront Walk, #B2 - 40"
Seoul Garden Buffet & Seoul Garden HOTPOT - HarbourFront Centre,ChIJR2jLC9gb2jERSOMeHzTdNNs,restaurant,1.2650798,103.8199438,"1 Maritime Square, #01-65 HarbourFront Centre"
KFC,ChIJHSqxPeIb2jERny68VoFv5rY,restaurant,1.2652128,103.8199861,"1 Maritime Square, #02-83/84 HarbourFront Centre"
Red White and Pure,ChIJq6qqo1gZ2jER7U6wiNfRzdE,restaurant,1.2647924,103.8221695,"1 HarbourFront Walk, Singapore"
Thaksin Beef Noodle,ChIJA-tGeecb2jERqTeXuDLkhpo,restaurant,1.2663193,103.8194204,"2 Seah Im Road, Singapore"
Aspirasi Chicken Rice,ChIJf4mpm-Eb2jERaUFlcKOqXek,restaurant,1.26633,103.8194036,"2 Seah Im Road, Singapore"
Oasis Spice Café,ChIJ-eGhoVUZ2jERqnCQOy9DEeo,restaurant,1.2538639,103.8225935,"8 Sentosa Gateway, Universal Studios"
Prima Computer Systems - POS Solutions,ChIJoZiROVkZ2jERxtjAavZ7dnw,restaurant,1.265116,103.825666,"Annexe Block, Level 10, 201 Keppel Road"
Siloso Beach Cafe,ChIJ4-_IPfkb2jERcA-runQLk84,restaurant,1.2544911,103.8146014,51 Imbiah Walk
Friar's Good Food,ChIJUbkv81UZ2jERwTaEv7En95w,restaurant,1.2546406,103.8237395,"8 Sentosa Gateway, Universal Studios"
Sanctuary Tearoom,ChIJ7xZ3TVUZ2jER-neTQEfw62Y,restaurant,1.2520799,103.822159,"1 Larkhill Road, Amara Sanctuary Sentosa"
Pizza Hut HarbourFront Centre,ChIJZTd8Z-Ib2jERTY2VbzE2c2c,restaurant,1.2652601,103.8199978,"1 Maritime Square, #01-69 HarbourFront Centre"
Osia Steak and Seafood Grill,ChIJufG1t1UZ2jERqqP4QaIoTzc,restaurant,1.2564647,103.8209869,"L2, Crockfords Tower, 8 Sentosa Gateway, Resorts World Sentosa"
Marrybrown,ChIJOeEeYf8b2jERIFDzM-cT2Ns,restaurant,1.2519406,103.8175254,"43 Siloso Beach Walk #01-03 iFly, Singapore"
Ola Beach Club,ChIJuU9qyPgb2jERidqJVhPuyUw,restaurant,1.253077,103.815187,46 Siloso Beach Walk
PUTIEN VivoCity,ChIJQ7ONulgZ2jERTqwkadCVJBw,restaurant,1.2634208,103.8223318,"1 HarbourFront Walk, #02 - 131 / 132 VivoCity"
Thai Accent,ChIJA7UOu1gZ2jERJBiW8FNGx3Q,restaurant,1.2634814,103.8218274,"1 HarbourFront Walk, #02-143 VivoCity"
Crystal Jade Pavilion,ChIJQ7ONulgZ2jERzbjgQA1j2vs,restaurant,1.2633755,103.8223827,"1 HarbourFront Walk, #01 - 112"
ES @ VivoCity (Please visit Swensen's Unlimited @VivoCity),ChIJA7UOu1gZ2jERcrEFy-AOKDs,restaurant,1.2634317,103.8229708,"1 HarbourFront Walk, #02-117"
McDonald's Harbourfront Centre,ChIJZTd8Z-Ib2jER7gmpwtC56t4,restaurant,1.2642175,103.8203582,"01-87, #01-88 and #01-89 1, Maritime Square, Harbourfront Centre"
Good Old Days,ChIJAQAAsAAc2jERbbHzLY1ImcM,restaurant,1.2516525,103.8171855,60 Siloso Beach Walk
Harry's HarbourFront,ChIJZTd8Z-Ib2jERk7Pn4HyY-7M,restaurant,1.2650072,103.8200037,"1 Maritime Square, #01-64 HarbourFront Centre, Singapore"
"Awfully Chocolate VivoCity (CAFÉ) – Bakery, Cake Shop & Birthday Cakes",ChIJQ7ONulgZ2jERqbx1RU7nzA4,restaurant,1.2634224,103.8217739,"1 HarbourFront Walk, #01 155 / 156"
The Queen & Mangosteen,ChIJQ7ONulgZ2jERyMLWoja8ALY,restaurant,1.2633827,103.8226903,"1 HarbourFront Walk, #01-106/107 VivoCity, Singapore"
Celebrity Cafe & Bakery,ChIJUbkv81UZ2jER5lVRjqtKPhQ,cafe,1.2558734,103.8219,8 Sentosa Gateway
Food Projects @ Sky Fitness,ChIJC57QtOMb2jERyVcbosDXjG0,cafe,1.2648081,103.8192714,3 Harbourfront Place
tcc - The Connoisseur Concerto @ VivoCity,ChIJ8z85gOIb2jEREtrgfnL1AS4,cafe,1.2634601,103.8214988,"1 HarbourFront Walk, #02 -149"
Starbucks VivoCity,ChIJTbM2xlgZ2jERs-5G7m49ATo,cafe,1.2641298,103.8229767,"1 HarbourFront Walk, #01-43"
Dimbulah Coffee @ KBT,ChIJr20MyOMb2jERtARSHD0tI_Q,cafe,1.2647674,103.8180135,"1 HarbourFront Avenue, Keppel Bay Tower"
KOI Cafe,ChIJbQLaolgZ2jERy_k9d_WxCf0,cafe,1.2647139,103.8231658,"1 HarbourFront Walk, B2-06B"
Ya Kun Kaya Toast,ChIJZTd8Z-Ib2jERkof08cZGZXk,cafe,1.2646346,103.8202814,"1 Maritime Square, #03-59"
Starbucks HarbourFront Centre,ChIJZTd8Z-Ib2jERPcxEfkElMmo,cafe,1.2647211,103.8200969,"1 Maritime Square, #01-76/77 Harbourfront Centre"
Hoshino Coffee @ VivoCity,ChIJx-8HqI8b2jERmsTyyqWGID8,cafe,1.2635117,103.8212226,"1 HarbourFront Walk, #01-165/166, Singapore"
Twelve Cupcakes,ChIJW09HgEob2jER8dPIh9pLGdg,cafe,1.2563211,103.8207757,"8 #01-73, Sentosa Gateway, Level 1 The Forum"
Wang Jiao House of Kaya Toast,ChIJZTd8Z-Ib2jER7cddgODF9nM,cafe,1.2638895,103.8198937,"1 Maritime Square, Singapore"
The Coffee Bean & Tea Leaf - HarbourFront Centre,ChIJcZ4GaOIb2jER58BvlnyDTvI,cafe,1.2640901,103.8202066,"1 Maritime Square 126 HarbourFront Centre #02-124, #125"
Kopi Korner (Harbourfront Centre) | Traditional Coffee | Wide range of Singapore Local Delights |,ChIJ71alXq0Z2jERBG0HlAhkm9Y,cafe,1.2640983,103.8202796,"1 Maritime Square, #01-K9/10"
Cedele Bakery Cafe - VivoCity,ChIJgWg3gOIb2jERHIKm3yPJ7uM,cafe,1.2634795,103.8223127,"1 HarbourFront Walk, #01-113/114 Vivo City"
Kenangan Coffee Vivo City,ChIJJ1GVN0kZ2jERSuogTsOpZlw,cafe,1.2635365,103.8222894,"1 HarbourFront Walk, #02-98A VivoCity, Singapore"
Toast Box (HarbourFront Centre),ChIJ5Qx1aOIb2jERLMSQYwMx9Es,cafe,1.26421,103.820236,"1 Maritime Square, #02-27 Singapore Cruise Centre, Singapore"
Umi's Spices,ChIJsXqrXjAb2jER0WjzqkfIvUU,cafe,1.2642175,103.8203582,"1 Maritime Square, #01, #103 108"
Da Paolo Gastronomia - VivoCity,ChIJ6YkZYRYZ2jERBdJhMJnRbV4,cafe,1.2634725,103.8225241,"1 HarbourFront Walk, #01-108 VivoCity, Singapore"
BNC-Bliss Nest Capsules,ChIJl1ZjQIEZ2jERCb8sP8-Iyvs,cafe,1.2635828,103.8224785,"1 HarbourFront Walk, #01-91 VivoCity"
Project Açaí (VivoCity),ChIJ____wFgZ2jER2tBRTHq67o4,cafe,1.2636046,103.8224805,"1 HarbourFront Walk, #01-92 VivoCity"
Starbucks Universal Studios Singapore,ChIJHYO3kFUZ2jERqoya1GiqAxk,cafe,1.2558954,103.8218753,30 Sentosa Gateway
Popiah & Rojak,ChIJ7VhopdgZ2jERrtbPrRwrrC8,cafe,1.2645879,103.8202449,
CHAGEE VivoCity,ChIJJ-GLYAAZ2jERDkp8GtvcjOI,cafe,1.2636039,103.8230384,"1 HarbourFront Walk, #01-98 VivoCity"
Kopi Satu,ChIJV9mDbAAb2jERM_NyMnDdrxo,cafe,1.2647313,103.8193854,"1 Maritime Square, #01, #103 108, Singapore"
Fishball minced Meat Noodle,ChIJF4-OXQAb2jERuUwCpViKCoA,cafe,1.2647313,103.8193854,"1 Maritime Square, Singapore"
Mixed Veg. Rice,ChIJcZ5DWQAb2jERE-zH9ORKu-0,cafe,1.2647313,103.8193854,"1 Maritime Square, Singapore"
Herbal Soup,ChIJ2YkjcgAb2jERhGaw_ASKjAc,cafe,1.2647313,103.8193854,"1 Maritime Square, #01, #103 108, Singapore"
Roasted Delights,ChIJZwxuPgAb2jEREl_5ifQdG4E,cafe,1.2647313,103.8193854,"1 Maritime Square, Singapore"
House of Soup,ChIJ50xVUgAb2jERNEjwPkZ15h0,cafe,1.2647313,103.8193854,"1 Maritime Square, Singapore"
luckin coffee - HarbourFront Tower 1,ChIJjZ_BtyEb2jERstung-diV-Q,cafe,1.2647934,103.8192617,"1 Harbourfront Place, #01-03"
Ober Coffee Co.,ChIJDYh5eSgb2jERBFG1-30PcDw,cafe,1.2647934,103.8192617,"1 Harbourfront Place, #01-01, Singapore"
Fun Toast,ChIJkUTlw4cb2jERe-NWPANARLQ,cafe,1.2648455,103.8203817,"01-83 Maritime Square, #1"
Killiney @ Harbourfront,ChIJAQAAN-Ib2jER6c0V1uedidU,cafe,1.2648188,103.8192714,"1 Harbourfront Place, #01-08 HarbourFront Tower One"
luckin coffee - VivoCity,ChIJs4erHAAZ2jERThDSbTM7GDo,cafe,1.2644032,103.8222071,"1 HarbourFront Walk, #02-119 Vivocity"
"dipndip, VivoCity",ChIJUS4YIgAZ2jER0Vic54XU4lQ,cafe,1.2643589,103.8223196,"HarbourFront Walk, #01-51 VivoCity Mall, 1"
M&S Cafe,ChIJU0uCKGkZ2jERiwNbsJpYjbg,cafe,1.2639532,103.8230042,"1 HarbourFront Walk, Singapore"
Tiong Bahru Bakery,ChIJCfe0A_UZ2jERmzVjea9L84o,cafe,1.2648069,103.8213714,"1 HarbourFront Walk, #01-188B Vivocity"
Henri Charpentier (Vivocity),ChIJfZsKnKIZ2jERj5j2a69vHLg,cafe,1.2646749,103.8219236,"1 HarbourFront Walk, #02-K4 VivoCity, Singapore"
Krispy Kreme,ChIJpVLkCuIb2jERupglnQKGqX0,cafe,1.2642944,103.8227011,"1 HarbourFront Walk, B2-K26 VivoCity"
The Providore - VivoCity,ChIJg_Lj4bQZ2jERWFMZFIv2zzg,cafe,1.2649477,103.8211444,"1 HarbourFront Walk, #01-188"
Ampang Yong Tau Foo,ChIJc1K1dwAb2jER8-PbgHxUVyQ,cafe,1.2650013,103.8209162,HarbourFront Walk
"ZUS Coffee - 42 Imbiah Lookout, Sentosa",ChIJF8yIslYb2jERjHSa_0vG3iE,cafe,1.2554156,103.8177207,"42 Imbiah Road, #01-02 to 01-04"
Surrey Hills Grocer - VivoCity (Pet Friendly),ChIJ62U-NzUZ2jERplUHJgaboqM,cafe,1.2640489,103.8233549,"1 HarbourFront Walk, #03-02 VivoCity"
Arbora Cafe,ChIJs0iBDkcb2jERuoOj2nCmBqI,cafe,1.2552475,103.8177722,42 Imbiah Road
Cafe Casa,ChIJC3fYGPgb2jERwvv3J543tD0,cafe,1.2645353,103.8173298,22 HarbourFront Avenue
Jing Chicken Pot 菁鸡公煲,ChIJFeD89A8Z2jERBwQYVYUD-bI,cafe,1.2647178,103.8224412,"1 HarbourFront Walk, #03 - 01 VivoCity, Singapore"
Tim Hortons VivoCity,ChIJMYM1mWIZ2jERVnF523ZuKic,cafe,1.2650509,103.821637,"1 HarbourFront Walk, #01-207 VivoCity"
The Coffee Bean and Tea Leaf - VivoCity,ChIJQ7ONulgZ2jERlF8ngbC_i38,cafe,1.2649919,103.8218388,"1 HarbourFront Walk, #02-04 Vivo City, Singapore"
恭和堂 @ Vivocity,ChIJ74Rd9S0Z2jERuqMsfHV5qiw,cafe,1.2648859,103.8221267,VivoCity
Belle-Ville Pancake & Coffee by Takagi Coffee Vivocity,ChIJ_5j1iaQZ2jERhe6YfDpbWaI,cafe,1.2649975,103.8218979,"1 HarbourFront Walk, #01-188A in front of Tangs department store"
Tiong Hoe Specialty Coffee (VivoCity),ChIJH4oF7sIZ2jER8RoUBibsDdI,cafe,1.2647884,103.822894,"1 Harbourfront Walk, Vivo City Fairprice Xtra, Unit, #B2-23"
Ah Mah Homemade Cake Vivo City,ChIJvXm2o1gZ2jERKC5oi0WQ9zw,cafe,1.2647139,103.8231658,"1 HarbourFront Walk, B2-K8"
Equarius Lounge,ChIJIZfT4P0b2jERZ8acnz312xM,bar,1.2580539,103.8165805,8 Sentosa Gateway
Casino Royale Bar,ChIJr6qqqq0e2jERXHzJRFzgeiE,bar,1.2560732,103.8202719,8 Sentosa Gateway
"Bikini Bar - Beachfront Bar on Siloso Beach, Sentosa",ChIJ4fVxTf8b2jER-wnDh8Sxov0,bar,1.2525685,103.8158124,"50 Siloso Beach Walk, #01-01"
Harry's Resorts World Sentosa,ChIJ0WgQoHcb2jER59XyTQllK9o,bar,1.2561776,103.8208415,"26 Sentosa Gateway, #01-71/83/84/85"
Aspire Recreation Centre,ChIJRaxUsGMb2jERQb6xOFBob-s,bar,1.2642175,103.8203582,"1 Maritime Square, #04-02"
Wildseed Bar & Grill,ChIJd625LWUb2jERSDtp-31jeOo,bar,1.2536239,103.8183685,6 Imbiah Road
"Coastes - Beach Bar & Restaurant | Siloso Beach, Sentosa",ChIJ4fVxTf8b2jERtNRUV2Ng-0Q,bar,1.2524212,103.8161708,"50 Siloso Beach Walk, #01-06"
Bedrock Origin - Steakhouse @ Sentosa,ChIJTRAkJcMb2jERn2_5B9Y0kRc,bar,1.2531961,103.8194919,"Oasia Resort Sentosa Hotel, 23 Beach View Road, #01-02 Palawan Ridge"
Axe Factor,ChIJK2FgHvMR2jERFba-OzTDP0E,bar,1.2528382,103.8207408,"2 Gunner Lane, #02-04/05 Mess Hall Sentosa (Blk 17"
Le Faubourg,ChIJozAd4eEb2jERkA7-7FffCxY,bar,1.2526575,103.8208749,"2 Gunner Lane #01-02 Mess Hall Block 17, opp The Barracks Hotel"
Yue Bar 悦吧,ChIJXQFgkWIZ2jERnGc4iH2rk-I,bar,1.2523457,103.8218133,1 Gunner Lane
1-Altitude Coast,ChIJOZy6ZAYd2jERF8vhEw_ieVo,bar,1.251922,103.8199827,"The Outpost Hotel, 10 Artillery Avenue, #07-01 Sentosa Island"
Bistro @ iFly Singapore,ChIJ8_dPZv8b2jERmyvtLf0TkMo,bar,1.2520779,103.8175982,"43 Siloso Beach Walk, #02-01"
Ola bar,ChIJM4setvgb2jERs6owZySa8AI,bar,1.2531021,103.8154224,"46 Siloso Beach Walk, Singapore"
Verve Bar + Grill,ChIJSVIHtwcf2jERVG-X_1AbMxM,bar,1.2517312,103.8221016,"1 Larkhill Road, B1-06 @ Amara Sanctuary Sentosa"
Privé Grill,ChIJ64t7q-Ub2jEREKur1uAJnDg,bar,1.2640047,103.8124338,"2 Keppel Bay Vista, #01-01, Singapore"
Sand Bar,ChIJI9IKWP8b2jERjEwiMza_cms,bar,1.2520149,103.8163818,53 Siloso Beach Walk
St James Power Station,ChIJ1VO7IVkZ2jERBm7au3IHB0I,night_club,1.2647638,103.8245361,3 Sentosa Gateway
Podiatry Quest - Harbourfront,ChIJre2fc8Yb2jERwyPFPZU3xwY,hospital,1.2643925,103.8202797,"1 Maritime Square, #09-10 Harbourfront Centre"
Gongshang,ChIJ749TkFgZ2jERCNYWpKkBtxQ,hospital,1.2641855,103.8225174,"1 HarbourFront Walk, Singapore"
Mint Medical Centre,ChIJC4-ILeIb2jERFKsGgof1qSo,doctor,1.2648126,103.8192602,"1 Harbourfront Place, #01-10 HarbourFront Tower One"
Beyond Perfect Asia Pte Ltd,ChIJ4SLT-_4W2jERAlX8H_NRq2s,doctor,1.2647617,103.8184384,"1 HarbourFront Avenue, Keppel Bay Tower, Singapore"
Nuffield Dental | Dentist @ HarbourFront,ChIJrfdUQbgb2jERcn51EDFm97c,doctor,1.2652637,103.8202445,"1 Maritime Square, #02-64A HarbourFront Centre"
Guardian Health & Beauty + Pharmacy – Harbourfront Centre (Click & Collect),ChIJZTd8Z-Ib2jERrtOZz-TyCHI,pharmacy,1.2638,103.8204591,"1 Maritime Square, #02-111/112 Harbourfront Centre"
Unity Harbour Front Centre,ChIJZTd8Z-Ib2jERHW1qiHPe1ro,pharmacy,1.2642175,103.8203582,"1 Maritime Square, #02-118/119"
G C Pharmaceutical (S) Pte. Ltd.,ChIJC9rPaeIb2jERxlrAU_B6Gyw,pharmacy,1.264248,103.820224,
Aloka Co Ltd,ChIJVf_IIOMb2jERzF9j9yWYiNo,pharmacy,1.2643246,103.8203062,1 Maritime Square
The Skin Pharmacy,ChIJq6qqmlgZ2jERaMq9MR5Go4U,pharmacy,1.2640606,103.8223506,1 HarbourFront Walk
OS+H Asia,ChIJU2sQf30Z2jERJVheZYy7Pt0,pharmacy,1.2649131,103.8187738,"3 Harbourfront Place, #09-02 HarbourFront Tower Two"
Unity VivoCity,ChIJGZWmZ_IZ2jERoBRmUPS1Vg4,pharmacy,1.2642079,103.8229093,"1, 01-23 HarbourFront Walk, VivoCity"
Watsons Singapore +Pharmacy + GNC - VivoCity (Click & Collect),ChIJn_7DvFgZ2jERMqUAu6CsEK0,pharmacy,1.2651541,103.822612,"1 HarbourFront Walk, #B2 - 15 / 16 / 17 VivoCity"
Equarius Hotel,ChIJRWwV3VgZ2jERQocSGmEbvAY,clinic,1.2581538,103.8166912,"8 Sentosa Gateway, Equarius Hotel"
Hotel Michael,ChIJMxZMLf4b2jERhPEQ3rajecw,clinic,1.2547727,103.8200881,"8 Sentosa Gateway, Hotel Michael"
Travelodge Harbourfront,ChIJhQsgLl8Z2jER_ewMvV5K6p8,clinic,1.2661751,103.823774,50 Telok Blangah Road
Amara Sanctuary Sentosa,ChIJ7xZ3TVUZ2jERfjDHnlIvir8,clinic,1.2520799,103.822159,"Sentosa Island, 1 Larkhill Road"
Golden Village VivoCity,ChIJQ7ONulgZ2jER9KaGJ6gbEuc,clinic,1.2647884,103.822894,"1 HarbourFront Walk, #02-30 VivoCity"
Samsung Experience Store,ChIJQ7ONulgZ2jERjg5c4dg3Bfo,clinic,1.2642937,103.8228853,"1 HarbourFront Walk, #02-28/29 VivoCity"
Mothercare Experience Store - Harbourfront Centre,ChIJZTd8Z-Ib2jER0P2jbEJnkhw,clinic,1.2642175,103.8203582,"1 Maritime Square, #03-05/06/07"
OCBC Bank | HarbourFront Centre,ChIJM9EuaOIb2jERA_WsaQ7eLkE,clinic,1.2649571,103.820444,"1 Maritime Square, #02-99/100 HarbourFront Centre"
Lacoste,ChIJVT30pVgZ2jERHBV9I8qXMV4,clinic,1.263919,103.8215502,"1 HarbourFront Walk, #01-191 VivoCity"
Tangs,ChIJVT30pVgZ2jERp_bsznq2oBo,clinic,1.2644641,103.8214718,"1 Harbourfront Walk #01-187 & #02-189, VivoCity"
PUMA VivoCity,ChIJQ7ONulgZ2jERYdWuzskTElw,clinic,1.2644058,103.8222447,1 HarbourFront Walk
Universal Studios Singapore,ChIJQ6MVplUZ2jERn1LmNH0DlDA,clinic,1.2540421,103.8238084,8 Sentosa Gateway
Liz Claiborne,ChIJQ7ONulgZ2jER8LDp7isE3K0,clinic,1.2652178,103.8220592,"1 HarbourFront Walk, Singapore"
Diva,ChIJQ7ONulgZ2jEROkenT1g4Esk,clinic,1.2652194,103.8220577,"1 HarbourFront Walk, Singapore"
Desigual,ChIJK7xLl1gZ2jERjdE4989aIgk,clinic,1.2647139,103.8231658,"1 HarbourFront Walk, #01-185 VivoCity"
Levi's VivoCity,ChIJQ7ONulgZ2jERpQs7waD76RY,clinic,1.2640311,103.8227288,"1 HarbourFront Walk, #01 - 67"
Festive Walk,ChIJkRh7fv4b2jER9HF6PFKJC6M,clinic,1.2557778,103.8193296,Singapore
Equarius Villas,ChIJnTehkP0b2jERlhQlqC00fKY,clinic,1.2594154,103.8166621,"8 Sentosa Gateway, Equarius Villas"
Challenger (Vivo City),ChIJQ7ONulgZ2jERQ9jFZKGjxq4,clinic,1.2640777,103.8233801,"1 HarbourFront Walk, #02-34 / 35"
ExxonMobil,ChIJC57QtOMb2jERvxjN9KV1sJw,clinic,1.2648337,103.8192371,"1 Harbourfront Place, HarbourFront Tower One, Singapore"
Boost,ChIJQ7ONulgZ2jER3ewYesUjRSw,clinic,1.2647139,103.8231658,"1 HarbourFront Walk, B2-K8 VivoCity"
Singapore Cruise Centre,ChIJq6qqepUb2jERNONKzQQqp-o,clinic,1.26421,103.820236,"1 Maritime Square, Singapore"
Sentosa 4D AdventureLand,ChIJOan9r_4b2jERQE_CFsBdhN4,clinic,1.2553977,103.8165183,51B Imbiah Road
Pull & Bear,ChIJQ7ONulgZ2jERpg65vP1lhZg,clinic,1.2643703,103.8225091,"1 HarbourFront Walk, #01-38 VivoCity, Singapore"
ActionCity VivoCity,ChIJl_o6tlgZ2jEReUylFBdGSek,clinic,1.2639669,103.8232309,"1 HarbourFront Walk, #02-38"
Bengawan Solo,ChIJZTd8Z-Ib2jER0qXSsrV461k,clinic,1.264314,103.820348,"1 Maritime Square, #01-101 HarbourFront Centre, Singapore"
Dental on the Bay,ChIJQ7ONulgZ2jERC4qlNEu12Z4,clinic,1.2649982,103.8211491,"1 HarbourFront Walk, #02 - 230"
EC House All Range Cuts,ChIJZTd8Z-Ib2jERzQzx9AoMRIY,clinic,1.2643997,103.8202814,"1 Maritime Centre, #03-12"
Samsonite - VivoCity,ChIJQ7ONulgZ2jERVtba8nYWeuE,clinic,1.2644794,103.8222866,"1 HarbourFront Walk, #02-10 VivoCity"
UOB ATM - Sentosa Gateway,ChIJBSeFIVkZ2jER0kNkasPKS3A,clinic,1.2647884,103.822894,"1 HarbourFront Walk, #01-K11 VivoCity, Singapore"
Sevens,ChIJK_1eruUb2jERD3w-xfA7B-4,clinic,1.2639777,103.812465,2 Keppel Bay Vista
Beauty Language,ChIJZTd8Z-Ib2jER5nBFyWQHc3Q,clinic,1.2642175,103.8203582,"1 Maritime Square, #02-93 HarbourFront Centre, Singapore"
Bulk Trade Pte Ltd,ChIJAybKOeIb2jERiNQUzYNTjoI,clinic,1.2643246,103.8203062,"1 Maritime Square, Singapore"
M Chair Singapore,ChIJC2iUOxUQ2jERk48aVc75oPM,clinic,1.2641359,103.8202144,"1 Maritime Square, #12-05"
AIBI,ChIJQ7ONulgZ2jERCNIRTyeOsoo,clinic,1.263638,103.820965,"1 HarbourFront Walk, #02-160/161 VivoCity, Singapore"
Speedy-Tech Electronics Ltd,ChIJuxFkOI8P2jERty7EyI7-hy8,clinic,1.2648866,103.8182751,"1 HarbourFront Avenue, #14-07 Keppel Bay Tower, Singapore"
Poh Kim Video,ChIJZTd8Z-Ib2jER_TJAX9N8e9A,clinic,1.2640541,103.819894,1 Maritime Square
KRTC Harbourfront,ChIJAybKOeIb2jER9_3S81iBnQw,clinic,1.264236,103.820361,"1 Maritime Square, #03-48 HarbourFront Centre, Singapore"
Masa Hairdressing,ChIJAybKOeIb2jERywztlmo2g14,clinic,1.2642175,103.8203582,"1 Maritime Square, #02-58 HarbourFront Centre, Singapore"
Chiropractic Solutions Group HarbourFront Branch,ChIJVf_IIOMb2jERamA3qqz7LNc,clinic,1.264709,103.820159,"1 Maritime Square, #03-54"
Sijori Holidays Resort Pte Ltd,ChIJAybKOeIb2jER2XTGnaCPLgA,clinic,1.2643246,103.8203062,1 Maritime Square
K+S,ChIJvbMTyeMb2jERULsLT91AQ9g,clinic,1.264845,103.8182947,"1 HarbourFront Avenue, #16-05"
Chopard RWS Boutique,ChIJ-YuyBFYZ2jERvKLtIao6mnk,clinic,1.2551519,103.8192253,"Sentosa Gateway, #02-106"
Cold Storage HarbourFront Centre,ChIJZTd8Z-Ib2jERAzwHRkIwnC4,supermarket,1.2640112,103.8201153,"1 Maritime Square, #01-48 to 50"
Elite Home,ChIJHSFu9eIb2jERrgmF8mJ152Y,supermarket,1.2634389,103.8200419,"#07-01 Harbour Front Centre, 1 Maritime Square, Singapore 099253"
Tikam Tikam,ChIJ4UiQv-Ib2jERL9OdDKjjStc,supermarket,1.2638895,103.8198937,"1 Maritime Square, #01-07, Singapore"
FairPrice Xtra VivoCity,ChIJ9_7w3iQZ2jER7mtoL9cUKdU,supermarket,1.2642274,103.8229442,"1 HarbourFront Walk, #01-23 & #B2-23, 1 HarbourFront Walk, #B2-23 VivoCity, Singapore"
NTUC Xtra,ChIJq_yPw5MZ2jERU4_IsIN0aKk,supermarket,1.2645756,103.8228979,"1 HarbourFront Walk, Singapore"
Buzz,ChIJJ1yzmOEb2jER1JpfMCs6fPs,supermarket,1.2667108,103.8194003,"4 Seah Im Road, HarbourFront Bus Interchange, Singapore"
Cheers,ChIJB0ZTfoEb2jERuUd-WMlKRvI,convenience_store,1.2650013,103.8204923,"1 Maritime Square, #01-82 HarbourFront Centre"
Cheers Beach Station Sentosa,ChIJRWvLgQAc2jERSgdm0445m6U,convenience_store,1.251746,103.81854,"50 Beach View Road, #01-01"
Cheers Vivo City,ChIJVRt6mlgZ2jERsANtPxh7tWM,convenience_store,1.2647884,103.822894,"1 HarbourFront Walk, #01-23A VivoCity, Singapore"
Hoover Store,ChIJdbQxnOEb2jERoFp4vw0IlPM,convenience_store,1.2667343,103.8190141,"2 Seah Im Road, #01-14 Seah Im Food Centre, Singapore"
UOB ATM - Lost World,ChIJp3jMm1UZ2jERnHLQ0VSIiUI,atm,1.256752,103.820331,"30 Sentosa Gateway, Resort World Sentosa, Singapore"
OCBC,ChIJ3-Xn2_0b2jERdNSsfIxf15E,atm,1.2567871,103.8196958,8 Sentosa Gateway
UOB,ChIJU7br2_0b2jERegEnyDWz0GQ,atm,1.2567749,103.8198707,8 Sentosa Gateway
OCBC Bank,ChIJ2ZbEcv4b2jERxXXnuz8u4eI,atm,1.2560704,103.8200123,8 Sentosa Gateway
HSBC ATM,ChIJVRt6mlgZ2jERuLFFeZNODME,atm,1.2635255,103.8220472,1 HarbourFront Walk
DBS Harbourfront Branch (All Services),ChIJz7WdaeIb2jERSOgE7LKEDgo,atm,1.2642175,103.8203582,"1 Maritime Square, #02-122/123 Harbourfront Centre"
Standard Chartered Bank,ChIJtaTAplgZ2jERuCSr7fZ2wGg,atm,1.2648861,103.8217528,"1 HarbourFront Walk, #B2 - 01, Singapore"
UOB ATM - Seah Im Road,ChIJwXRcmOEb2jER9p9lXnW2WpA,atm,1.2645926,103.821554,4 Seah Im Road
DBS ATM - Sentosa Ferry Terminal Station,ChIJq8-JwGMb2jERcpXVCR0a4Z8,atm,1.2569498,103.820641,1 Garden Avenue
DBS ATM - Resorts World Sentosa Basement 1 Mezzanine,ChIJ19SwwNMZ2jERA203kBZn3W0,atm,1.2572825,103.8221549,"26 Sentosa Gateway Basement 1 Mezzanine, Singapore"
DBS ATM - Resorts World Sentosa Branch,ChIJCZAGNQYZ2jERLrzcgkLglRM,atm,1.2575639,103.8225089,"26 Sentosa Gateway, #01-205/206 Resorts World Sentosa"
DBS ATM - Resorts World Sentosa Level 1 Forum,ChIJdT3SypkZ2jERziWKSRqS_Kg,atm,1.2575639,103.8225089,"26 Sentosa Gateway, Level 1 Forum"
DBS ATM - Resorts World Sentosa Level 1 Visitor Centre,ChIJGVDPCDMZ2jER0JxtbwMpijE,atm,1.2575639,103.8225089,"26 Sentosa Gateway, Level 1 Visitor Centre"
DBS ATM - Resorts World Sentosa Universal Studio Entrance,ChIJkaBWDeIZ2jERuh_g6DOstDc,atm,1.2575275,103.8225029,"26 Sentosa Gateway, Universal Studio Entrance"
UOB ATM - Resort World at Sentosa,ChIJj9GBLXwb2jERrO4qTcxTw0c,atm,1.2563085,103.819981,"No. 26 Sentosa Gateway, Basement 1 Forum, Resort World at Sentosa"
DBS,ChIJMWdIAf4b2jERLUBNu7NKfbI,atm,1.2563288,103.8212547,8 Sentosa Gateway
POSB,ChIJWep7ElYZ2jERYrxRytMo1tA,atm,1.2570312,103.8225171,"26 Sentosa Gateway, Basement 1 Forum"
ICBC ATM,ChIJNf0-yoIZ2jERh4JKYNaQVoE,atm,1.2635198,103.8220497,"1 HarbourFront Walk, Singapore"
DBS ATM - VivoCity,ChIJpYpi8wAb2jERyKXSyLVNNdk,atm,1.2636733,103.8218157,"1 HarbourFront Walk, #01-K6 VivoCity, Singapore"
UOB ATM - Harbourfront Passenger Terminal,ChIJj9mCql0b2jERSk0rcoQn24Q,atm,1.2640983,103.8202796,"1 Maritime Square, #01-ATM-3 Harbourfront Passenger Terminal"
DBS ATM,ChIJSX58E-Ib2jER-bN2DD40Lpw,atm,1.264117,103.8201031,"1 Maritime Square, #02-122/123 Harbourfront Centre"
DBS ATM - Singapore Cruise Centre,ChIJXzC2hJMb2jERWZlYGKTio5w,atm,1.2641352,103.8203817,"1 Maritime Square, #01-31B Lobby D"
DBS VTM (Video Teller Machine) - DBS HARBOURFRONT BRANCH,ChIJXcFvwdwb2jER4a41BfZwek8,atm,1.2641673,103.8202307,1 Maritime Square #02-122/123 Horbourfront Centre
DBS CDM (Coin Deposit Machine) - DBS HARBOURFRONT BRANCH,ChIJA8p4xAMb2jERe0iXYTDvg7E,atm,1.2641673,103.8202307,"1 Maritime Square, #02-122/123 Harbourfront Centre"
UOB Auto Lobby,ChIJZTd8Z-Ib2jERxg20aZwsK2g,atm,1.2645607,103.8204891,1 Maritime Square
"Standard Chartered Bank, Vivocity",ChIJq6qqmlgZ2jER1WwNXmDCrmw,atm,1.2640606,103.8223506,"1 HarbourFront Walk, #B2-01 Vivocity"
"ATM HSBC, Vivo City",ChIJVVVVvlgZ2jER7TOouJPUHZE,atm,1.2641959,103.8224436,"1 HarbourFront Walk, #01-K12 VivoCity"
UOB ATM - Harbourfront CCL Station,ChIJXWNXIcob2jERXs5m25JeNAY,atm,1.2650372,103.8215381,"No. 83 Telok Blangah Road, CCL Station"
Citibank Singapore ATM - Harbourfront MRT,ChIJDS2lDpob2jERzrJpfI-MfRo,atm,1.2650372,103.8215381,"Harbourfront Circle Line SMRT Station, 83 Telok Blangah Road"
DBS ATM - Harbourfront Mrt Stn,ChIJ5ZIZXjIb2jERvnv09Z73dys,atm,1.2651686,103.8218281,81 Telok Blangah Rd Harbourfront Mrt Stn
POSB Telok Blangah Road,ChIJpzD4A-Ib2jERSnmzqCCl_3g,atm,1.2655352,103.8212226,81 Telok Blangah Road
Maybank ATM,ChIJj3PG_tgZ2jERHpJ7WdT13uU,atm,1.2647139,103.8231658,"1 HarbourFront Walk, Singapore"
OCBC Bank ATM,ChIJH7rroeEb2jER4Tv0ZPmiT8o,atm,1.2667926,103.8193303,No. 4 Seah Im Road
UOB Branch - VivoCity Branch,ChIJjV9JdeIb2jERTVq_enCPPOw,bank,1.2647884,103.822894,"1 HarbourFront Walk, #02-205 VivoCity"
Standard Chartered VivoCity Branch,ChIJWas6RGAZ2jERd8T5nxLE_wk,bank,1.2648861,103.8217529,"1 HarbourFront Walk, #B2 - 01"
SSTC Institute,ChIJ-STZrqIZ2jER_kEAi4HkVs0,school,1.2644615,103.8201179,"1 Maritime Square 13-01 HarbourFront Centre access from Lift, Lobby B to Level 12 Level 13 via escalator"
Agora Colearning,ChIJI8r3ofMb2jERIjPaEQhAVuA,school,1.2632359,103.8201359,"HarbourFront Centre, 1 Maritime Square, #04-01 Lobby C"
Readers Harvest,ChIJA4hEaOIb2jERDhOXC3wpIg4,school,1.2641654,103.8203016,1 Maritime Square
inStic Academy,ChIJDc2Rtnsb2jERxP4KJUK9Smo,school,1.264197,103.820116,"1 Maritime Square, #04-01"
Brighton Montessori Harbourfront,ChIJYyXQ9Dcb2jERRCg_lzSRgNo,school,1.2642175,103.8203582,"1 Maritime Square, #03-03 HarbourFront Centre"
Heguru Method @ HarbourFront,ChIJ9TyQaeIb2jERaBSLHLfaVCA,school,1.2643246,103.8203062,"1 Maritime Square, #03 - 09"
Parent-Teacher-Child Learning School International,ChIJqQjOtOMb2jERPzccfFaqPgw,school,1.2648081,103.8192714,"3 Harbourfront Place, HarbourFront Tower Two, Singapore"
ORION Wealth Academy,ChIJN_xk_2sb2jEREJ89zpRAwRg,school,1.2649132,103.8187874,"3 Harbourfront Place, Level 6 HarbourFront Tower Two"
Kiddiwinkie Schoolhouse @ Harbourfront,ChIJ5-kytOMb2jERzCrfLvvy614,school,1.2649375,103.818727,"3 Harbourfront Place, #02-01 HarbourFront Tower Two"
Heph Academy,ChIJ281sc5DTuUERHiUpiaqKGKU,school,1.2661746,103.8233469,"52 Telok Blangah Road, #04-03 Telok Blangah House"
SwingXV Tennis,ChIJHwP6g7gX2jERWTtsU8YQSP8,school,1.2664005,103.8171202,21 Keppel Bay Drive
EtonHouse Pre-School by the Beach,ChIJ0ZQXRQ4d2jERUjXgjf97pjE,school,1.2517513,103.8202065,"31 Beach View Road, #02-01 & #03-01 Palawan Kidz City, Sentosa"
Nomad Voice Coach,ChIJ6bI-5dUZ2jERtnTlKNP-ggw,school,1.2678622,103.8228401,Singapore
"Julia Gabriel Preschool | Julia Gabriel Centre, Keppel Bay",ChIJOZQFntUb2jERCMSelNNXGUc,school,1.2640047,103.8124338,"2 Keppel Bay Vista, #02-02A Marina at Keppel Bay"
Parkway College of Nursing and Allied Health,ChIJ2Z43aNEb2jERMpz7EhqfML0,university,1.264793,103.819262,"1 Harbourfront Place, #03-02 By Appointment Only, HarbourFront Tower One"
library@harbourfront,ChIJDcJs9UEZ2jER4dKm3CUVyMk,library,1.2636837,103.8233985,"1 HarbourFront Walk, #03-05 VivoCity"
Sentosa Nature Discovery,ChIJs5SWl_4b2jEREuxNT9wdNb8,museum,1.2558426,103.8173977,51 Imbiah Road
Madame Tussauds Singapore,ChIJX9f4G_8b2jERZvjHhM9tQqg,museum,1.2540373,103.8176215,"40 Imbiah Road, Sentosa"
Maritime Experiential Museum,ChIJTfFB11QZ2jERnVDi2n6jbB0,museum,1.2569835,103.8202676,8 Sentosa Gateway
Trickeye Singapore,ChIJlRa8x_0b2jERH7T4WjNR_Qk,museum,1.258124,103.811537,"80 Siloso Road, Southside, Blk B, #01-04"
Merlin Entertainments Singapore Pte. Ltd.,ChIJr-R5Hv8b2jERqTqZ3QTgoCM,museum,1.2540373,103.8176215,40 Imbiah Road
Marang Trail,ChIJO8_M5OEb2jERI5Q-BqYWOgE,park,1.2666849,103.8211715,45 Marang Road
HarbourFront Promenade,ChIJAxJtMQAZ2jERo9KIeOqTVy4,park,1.2631601,103.8222793,
Harbourfront Boardwalk,ChIJwXTLLwAZ2jER4UiURaVqFn0,park,1.2621917,103.8234277,
Mt Imbiah,ChIJh26Fv-Qb2jERwQbT3_hMo6A,park,1.2556048,103.8159809,"51C Imbiah Road, 싱가포르"
Imbiah Nature Trail,ChIJZatotf4b2jERymPQQVzwbPM,park,1.2556163,103.8159455,51 Imbiah Road
Corals Promenade,ChIJzaFcV18b2jERQbvBrQgj5IA,park,1.264453,103.815087,Singapore
Imbiah Trail,ChIJFZTruzQb2jERA6oSVoKOGeI,park,1.2570401,103.8137707,Imbiah Trail
Sentosa Sensoryscape,ChIJG2tCUAAb2jER1d8J7MkyD_E,park,1.25311,103.8187742,"3 Siloso Road, #01 3, Singapore"
Tempinis Cascade,ChIJrTjxCbAb2jER60-c2EyLhe8,park,1.2575736,103.8132669,Singapore
Access to Mount Faber (Temenggong Road),ChIJA5MGEwAZ2jERIojLicqgTWE,park,1.2671798,103.8239447,
Palawan kidz city roof garden,ChIJg-UcPAAd2jERnKiT0wTnQQE,park,1.2516036,103.8202516,Sentosa
Coastal Trail,ChIJWwPA6E0b2jERYXwzgf4dYb8,park,1.2576354,103.8115056,Singapore
S.E.A. Aquarium,ChIJj-3Cq_0b2jERJv2MBkSVsPQ,aquarium,1.2583209,103.8205147,"8 Sentosa Gateway, Sentosa Island, Singapore"
シー アクアリウム,ChIJAQBA3VQZ2jERpdlfmD16otA,aquarium,1.2583051,103.8205108,"8 Sentosa Gateway, Singapore"
Deep Boo Sea!,ChIJIZfT4P0b2jERuksy7J3zrJM,aquarium,1.2569835,103.8202676,"8 Sentosa Gateway, Singapore"
Gv Gold Class- VivoCity,ChIJVVVVvlgZ2jER3nWPdpk9Rs8,movie_theater,1.2634792,103.8232932,"1 HarbourFront Walk, Singapore"
Gvmax,ChIJHaW9EuIb2jERTHfbSBP0XjQ,movie_theater,1.264586,103.8229569,"1 HarbourFront Walk, Singapore"
Shrek 4D,ChIJ8_a97Y8Z2jERkgfdxEHBbRA,movie_theater,1.2549965,103.8238626,"8 Sentosa Gateway, Universal Studios"
Masjid Temenggong Daeng Ibrahim,ChIJeeS_KF8Z2jERlZSfB5Mj7X0,mosque,1.2664257,103.8243027,"30 Telok Blangah Road, Singapore"
Adventure Cove Waterpark,ChIJS0Dhxf0b2jERAuG9YaPrYjA,amusement_park,1.2577149,103.8179385,"8 Sentosa Gateway, Sentosa Island"
Sentosa CineBlast,ChIJA3CRt_4b2jER1z3cqsb-kGg,amusement_park,1.255417,103.816495,51B Imbiah Road
Skyline Luge Singapore,ChIJ85RsJPkb2jER9Ee7lPACKmQ,amusement_park,1.2519444,103.8169444,"45 Siloso Beach Walk, Sentosa"
Ray Bay Encounter,ChIJS54XMgAb2jERJ5eHxKJvu1E,amusement_park,1.2590995,103.819168,Sentosa
Mega Adventure - Singapore,ChIJpxs67_sb2jER1pJkEAHxc0Q,amusement_park,1.2559413,103.8122967,10A Siloso Beach Walk
Minion Land Singapore,ChIJB4NLBgAZ2jER49e9UjRVsjw,amusement_park,1.2554644,103.8230666,"8 Sentosa Gateway, Singapore"
Far Far Away,ChIJVWkRHC4Z2jERbPtAaFriTfY,amusement_park,1.2551039,103.8238997,8 Sentosa Gateway
Universal Studios,ChIJpeUgeAAZ2jERLK3EsnDFlI4,amusement_park,1.2540431,103.8238082,"8 Sentosa Gateway, Canopy Flyer, Singapore"
Jurassic World,ChIJ5d8JjTgZ2jERAa5S5Ur737I,amusement_park,1.2539178,103.8240431,"8 Sentosa Gateway, Singapore"
HeadRock VR Singapore,ChIJYyouLbgZ2jERuV5F8Gi938Q,amusement_park,1.258124,103.811537,"80 Siloso Road, Southside Blk, #01-03 B"
Kebab Bhai,ChIJc_Y0E9cb2jERnfZZT6zoXNA,meal_takeaway,1.2642175,103.8203582,"1 Maritime Square, #01-84D, Singapore"
Frozen Heart Fried Gelato (VivoCity),ChIJw1ktXAAZ2jERYDrBiZma3Js,meal_takeaway,1.2643589,103.8223196,"1 HarbourFront Walk, B2-K20 VivoCity"
Guzman y Gomez - VivoCity,ChIJgaTIEAAZ2jERK2ptxnbaQ-s,meal_takeaway,1.2646722,103.8218475,"1 HarbourFront Walk, B2-33A/B Vivocity"
Potato Corner @ HarbourFront,ChIJk-M7KwAZ2jERr8b6mIFPIlo,meal_takeaway,1.2644794,103.8222866,"1 HarbourFront Walk, #B2-K16 VivoCity, Singapore"
Stuff'd,ChIJvaStvFgZ2jERni1LOSYc9MU,meal_takeaway,1.264996,103.820846,"HarbourFront Walk, 1, B2-K17 VivoCity"
Panda Chan Snack,ChIJT04xRgAZ2jEREVuCXZSdRO0,meal_takeaway,1.2648839,103.8219803,"1 HarbourFront Walk, B2-04 VivoCity, Singapore"
"WOK HEY VivoCity, Harbourfront",ChIJE_e0lugZ2jEREZxcikcTyHg,meal_takeaway,1.2647136,103.8224228,"1 HarbourFront Walk, B2-K23 VivoCity, Singapore"
Hong Kong Egglet,ChIJOdj1-10Z2jEREACXSnXg0dU,meal_takeaway,1.2649368,103.8224463,"1 HarbourFront Walk, B2-K17, Singapore"
Mr.Onigiri,ChIJ9UrSSnQZ2jERhdDMaQ8CgEQ,meal_takeaway,1.264757,103.8228604,"1 HarbourFront Walk, B2-23D VivoCity"
Seeds of Joy @ Vivo City,ChIJAZXn7PkZ2jERkJVoNOD5rK4,meal_takeaway,1.2647884,103.822894,"1 HarbourFront Walk, #01-23 FairPrice Xtra"
Brani Marine Fire Station,ChIJP7vxUUkZ2jERatw7BgbbGNg,clinic,1.2565877,103.8386361,19 Brani Way
Tiffany & Co.,ChIJ__ukuI082jERQB8SrTgBlyo,clinic,1.262357,103.832853,"Unit 026-082 Departure/Transit Lounge South, Terminal 2"
Police Coast Guard - Brani Base (Headquarters),ChIJ81JXrksY2jER7-F68K-_oI8,clinic,1.2577501,103.831658,11 Brani Way
PIL-PSA Singapore Terminal (PPST),ChIJ5TjmGAAZ2jERE8G-aCLlPJA,clinic,1.260845,103.8391543,"Brani Terminal Avenue, PSA"
Brani9,ChIJdZCvVAAZ2jEREVSA5kVDv94,clinic,1.257079,103.8402612,"Brani Terminal Avenue, Republic of"
HQ Marine Division,ChIJMcbmmlMZ2jERYnzPBwmmTbk,clinic,1.256705,103.838905,"19 Brani Way, Singapore"
Brani Canteen Near B07,ChIJ1d1bvE8Z2jERWRSo7BZEspU,clinic,1.2596441,103.8351347,1 Brani Terminal Avenue
EASTERN (1961) BT OFFICE,ChIJlbykR08Z2jERCiO8MNxgO4I,clinic,1.2595553,103.8350981,Brani Terminal Avenue
BATU GAJAH DEPAN ASRAMA,ChIJdcrTNAAZ2jERhwKc-OEjrl8,clinic,1.2558333,103.8369444,Batu gaja
Sentosa Serapong Reefs,ChIJyUGnYkwZ2jERkzr0UCOLguM,clinic,1.254041,103.838229,"1°15'14. 103°50'17., 6 Telok Blangah Crescent, 6 Telok Blangah Crescent, Singapore"
PSA Tanjong Pagar Terminal,ChIJtwMcGUEZ2jER35_kZoanHT4,clinic,1.267043,103.8414384,Tanjong Pagar Terminal Road J
Bra,ChIJyaOkt1oZ2jER5NLPzlD6JQE,clinic,1.2622066,103.8326566,89 Brani Terminal Avenue
PSA Brani Terminal,ChIJyaOkt1oZ2jERVsKGBOIcIdE,clinic,1.2622066,103.8326566,124 Brani Terminal Avenue
Basketball court,ChIJ00O1TtkZ2jERmdhBjGa57uM,clinic,1.2606807,103.8320439,"85 Brani Terminal Avenue, Singapore"
Marina Bay Cruise Centre,ChIJfyAOmiMZ2jERY-efsiKC7UM,transit_station,1.2667249,103.8600621,Singapore
Singapore Port,ChIJmxL9KwAZ2jERkKlKXeZsPKM,clinic,1.2658785,103.8595842,Marina Bay Cruise Centre
MLS Meteorite Logistics Services,ChIJqbORjiMZ2jERY7dcfyxySZE,clinic,1.2660036,103.8603372,Marina Coastal Drive
Fifty Five Coffee Bar,ChIJva8rjCMZ2jERtuu6UX08sJQ,clinic,1.2660349,103.8604084,Marina Coastal Drive
Poiz,ChIJ6wSz6I8Z2jERSriIMUxgbOw,clinic,1.266117,103.860593,"61 Marina Coastal Drive, Singapore"
Marina Coastal Drive,ChIJfQt8RXMR2jERziNBBvT6Lz4,clinic,1.2663233,103.8603308,#01-01
MBCC arrivals pickup bay,ChIJjwUlDwAZ2jERBn_YPFU5ANs,clinic,1.266344,103.860337,"61 Marina Coastal Drive, #02-02 Marina Bay Cruise Centre, Singapore"
LUGGME Luggage Delivery,ChIJPT7NfdcZ2jERhxDacwQAKU0,clinic,1.2663843,103.8603352,61 Marina Coastal Drive
Bef Tuas Sth Ave 14,ChIJ0zTFApEG2jERcRwmbiwdEbs,transit_station,1.277921,103.621643,Singapore
Opp Rec S'Pore,ChIJq15hZ5cG2jERqSf7MoMPfiE,transit_station,1.275109,103.624222,Singapore
Halliburton,ChIJw8gb0ZoG2jERDQ0sNTYBPIo,transit_station,1.280501,103.627113,Singapore
islam din,ChIJ91sm9E0H2jERCEjIfXl_L_0,restaurant,1.2866156,103.6237202,1a Tuas South Avenue 10
TotalEnergies Marketing Asia-Pacific Middle East Pte. Ltd.,ChIJ5y8GH5QG2jERyBcnvsYLvJc,clinic,1.2752896,103.6186817,2 Tuas South Avenue 14
REC Solar Pte Ltd,ChIJLUmfppcG2jERlZvl8htCgBQ,clinic,1.2742815,103.6223129,20 Tuas South Avenue 14
Mb Services Pte. Ltd.,ChIJ-b-huJcG2jERLBtnzDABDmY,clinic,1.273638,103.622792,"20 Tuas South Avenue 14, Singapore"
Chrisnetic Pte. Ltd.,ChIJT5ezlrMZ2jERH5vWjlsIqO4,clinic,1.2868412,103.6230838,"9 Tuas South Avenue 10, #05-05, Singapore"
AVANZ ASIA PTE LTD,ChIJnXSArYMG2jERwFdpTZ-x2Gg,clinic,1.2870285,103.6226325,"9 Tuas South Avenue 10, #04-09/10 T99 Building"
M.D. Construction Engineering Pte Ltd,ChIJQfe5JFwS2jERzn51Dw9qi4w,clinic,1.2872271,103.622889,"#02-07, No, 9 Tuas South Avenue 10"
LAM TAK PTE LTD,ChIJq1tPkM0i2jEROmu7EukA2LE,clinic,1.2872026,103.6229722,"9 Tuas South Avenue 10, #03-04 T99"
Singapore Lube Park,ChIJd5ZEWJYG2jERRk4avDk1y6Y,clinic,1.2721611,103.6205468,"160 Tuas South Avenue 5, Singapore"
JE-Graphics Pte Ltd,ChIJ55DMm3IQ2jER-pLWNGnO2Nc,clinic,1.2875209,103.6231334,"9 Tuas South Avenue 10, #03-22 T99, Singapore"
International Tess Singapore Pte Ltd,ChIJWTfXTf8F2jERNuiZRnqZyRA,clinic,1.2873367,103.623565,"5 Tuas South Avenue 10, T99, Singapore"
Union Forklift Trading,ChIJT8hvuRAS2jERY_GSIraJ4mg,clinic,1.2874947,103.6235389,"7A Tuas South Avenue 10, T99"
T99,ChIJlUtFQLMa2jERN2swlVFPX1A,clinic,1.287733,103.6235346,9 Tuas South Avenue 10
Junma Services Pte Ltd,ChIJM0PtOPcF2jERr53Dwh_tK-A,clinic,1.2879404,103.6238758,"7 Tuas South Avenue 10, T99, Building"
Aoki Science institute Pte.Ltd. Factory,ChIJ_5aiaQAH2jERT4vxchCe0E0,clinic,1.2810005,103.6212667,"12 Tuas South Drive, Singapore"
Denka Advantech Pte Ltd,ChIJr0vhFJEG2jERlaPz-VyeVdQ,clinic,1.2777889,103.6206887,"6 Tuas South Drive, Singapore"
TOA CORPORATION,ChIJDTb0IBMH2jERd_ta_LIjOsw,clinic,1.2770841,103.6179204,
CDG Engie Charging Station,ChIJOSwFMpEG2jERGiAC_w1Ds-k,clinic,1.2765315,103.6210179,"4 Tuas South Drive, Singapore"
JTC TVE AA,ChIJTWt6GMQH2jERLpbTYsF6k2k,clinic,1.2835342,103.6205969,Tuas South Boulevard
Altent Renewables,ChIJgSdx2pQH2jER0Pp9l1IPLUI,clinic,1.2765283,103.621034,"4 Tuas South Drive, #06-27 JTC Chemicals Hub @ Tuas South"
Fortune Chemical Pte Ltd,ChIJh2z4gKgH2jERsCO7GA4Gha8,clinic,1.2765283,103.621034,"4 Tuas South Drive, #01-13"
Ventós - VOS Pte. Ltd. Warehouse,ChIJoRFWVEgZ2jER0H_OOKRZd4w,clinic,1.2765283,103.621034,"4 Tuas South Drive, Singapore"
Nordmann Singapore Pte Ltd,ChIJE1Y4gsIH2jER0T6mqZU5lp4,clinic,1.2765283,103.621034,"4 Tuas South Drive, #04-27 JTC Chemicals Hub"
Evacle Pte Ltd,ChIJdSEMvOwH2jERCIXQD0y2Iuo,clinic,1.2765283,103.621034,"4 Tuas South Drive, #05-25 JTC Chemicals Hub"
JTC Chemicals Hub,ChIJ4wb4dJEG2jER-ShlePNTxEM,clinic,1.2765283,103.621034,4 Tuas South Drive
Kemia Pte Ltd,ChIJXWN2MWMG2jER_LVroKb-VU4,clinic,1.2765283,103.621034,"4 Tuas South Drive, Singapore"
L&L PRODUCTS SINGAPORE,ChIJJzDI65UH2jERNMU3f5UQbq0,clinic,1.2762005,103.6205583,"4 Tuas South Drive, Singapore"
杨记,ChIJMZRnhN4H2jERllKap_M9Xf0,clinic,1.2813819,103.6236175,"15a Tuas South Avenue 12, Singapore"
Focus Paint (S) Pte Ltd,ChIJSdy6nDIH2jERT8L8CvWIAtk,clinic,1.2761436,103.6195079,"4 Tuas South Drive, #-4-25 JTC Chemical Hub"
Alcon Singapore Manufacturing Pte Ltd,ChIJgZ29LZcG2jERQblwA5JcUJY,clinic,1.276065,103.622431,19 Tuas South Avenue 14
TotalEnergies Charging Station,ChIJwTB3GZQG2jEROaDwZsirKjs,clinic,1.2753584,103.6183854,"Tuas South Avenue 14, 2, Singapore"
STA Pharmaceutical Singapore Site Office,ChIJSaCaxmIH2jERqk5RGQYB37A,clinic,1.2824862,103.6245845,10A Tuas South Avenue 12
MCI Outsourcing Pte Ltd,ChIJpxq_cAAH2jERmie5BjjEK1c,clinic,1.2752179,103.6223632,"18 Tuas South Avenue 14, Singapore"
Halliburton Completion Technology and Manufacturing Center,ChIJiyjxkpoG2jERTxmrlOqDgLE,clinic,1.2802624,103.6257133,"11 Tuas South Avenue 12, Singapore"
REC carpark 4A,ChIJyTcsLZYH2jERqnpw89pSG3w,clinic,1.2746938,103.6225684,"19A Tuas South Avenue 14, Singapore"
Giant Star Pte. Ltd.,ChIJxy6Gg5oH2jERu8d0wWPnD_Y,clinic,1.2738902,103.6203775,150 Tuas South Avenue 5
Yakub Tours and Travels,ChIJgW7xiUAH2jERxkMF24yotV0,clinic,1.2859536,103.6217704,"Tuas South Boulevard, #14"
Sinopec Lubricant Singapore,ChIJf_Gq6ZYG2jERJJzdORRsq-8,clinic,1.2737274,103.6206137,150 Tuas South Avenue 5
Westlite Tuas South Boulevard,ChIJV9uprPEH2jERbFDU0YxTKOw,clinic,1.2859991,103.6220725,11A Tuas South Boulevard
SMEG-6 Office,ChIJcXTsrzEH2jERSuo1W4X0gEE,clinic,1.2858532,103.6230524,3 Tuas South Avenue 10
Tuas Biomedical Park 2,ChIJMaQfnIUG2jERNLGtOEWCzm4,clinic,1.283489,103.625771,Singapore
STA Pharmaceutical Site,ChIJ8Q6TJAAH2jERU84rIrxIx9k,clinic,1.2847453,103.6248155,
REC,ChIJC9YyhgkH2jERtgvfQ5nVSL0,clinic,1.2745293,103.6240798,Opp Rec S'Pore
Schneider Electric HubAsia,ChIJVR0HOMMH2jERBZA4p0GMW28,clinic,1.2729025,103.6211868,"20 Tuas South Avenue 5, Level 2 Tuas Logistics Hub, Singapore"
SuperFreeze Tuas,ChIJKZN3cOUH2jERV10Z69GsS1M,clinic,1.2729025,103.6211868,"20 Tuas South Avenue 5, #01-02/03 LOGOS Tuas Logistics Hub, Singapore"
Schneider Electric Logistics Asia Pte Ltd,ChIJlYl1ybQa2jER78VhbP1x4dA,clinic,1.2729025,103.6211868,"20 Tuas South Avenue 5, Singapore"
Maersk Logistics & Services Singapore Pte. Ltd.,ChIJtdnTFQAH2jERem_2cQG9u5A,clinic,1.2728891,103.6211881,"4M Floor, 20 Tuas South Avenue 5, #04M-03 LOGOS Tuas Logistics Hub, Singapore"
LOGOS Tuas Logistics Hub,ChIJa7ChDm4H2jER_CrrRQ0Sx1o,clinic,1.2728891,103.6211881,"20 Tuas South Avenue 5, Singapore"
Traverse International Pte Ltd,ChIJSVZaHy8H2jERp9V6PJhrp5k,clinic,1.2866002,103.6230844,"9, #02-05 Tuas South Avenue 10, T99 Building"
Gin Huat Engineering & Supplies Pte. Ltd.,ChIJM7rbu4gG2jERBJ8oQKa9oXk,clinic,1.2863969,103.6236401,1 Tuas South Avenue 10
Spare Parts,ChIJM7rbu4gG2jERHeFssvseMQM,clinic,1.2863969,103.6236401,03-19 Tuas South Avenue 10
Pacific M Trading Pte Ltd,ChIJo7w1pzMH2jER1OcOVvNsDPM,clinic,1.2866837,103.6231149,3 Tuas South Avenue 10
Seahorse,ChIJXw_XwYgG2jERKN-nKks6orM,clinic,1.2868412,103.6230838,"9 Tuas South Avenue 10, Singapore"
Ding Alloys Trading Pte. Ltd.,ChIJLQ4t6IoP2jERe_IWVINt2G8,clinic,1.2868412,103.6230838,"9 Tuas South Avenue 10, #02-09 T99, Singapore"
Hardware shop,ChIJ6bGyH-AH2jERoob8xX6btI4,clinic,1.2867691,103.6233221,
Keong Industries Pte Ltd,ChIJKZReBUMH2jERmSoVODxoCwU,clinic,1.2866613,103.623582,"9 Tuas South Avenue 10, #05-01/02 T99, Singapore"
Opp Sls,ChIJeUVA_J0G2jERlXwdx9qy7oc,transit_station,1.276398,103.635811,Singapore
Variety nugget,ChIJi35jtuUV2jERp3LqvIz0FL4,restaurant,1.279821,103.6401659,
PND Restaurant and Mini Mart,ChIJY_QHbJIF2jERGz0LSwtHjb8,restaurant,1.2779012,103.6363623,"9 Tuas South Street 15, Singapore"
Famous Nasi lemak,ChIJETWhuMUF2jEReZwqIjzhUY4,cafe,1.2725479,103.6374262,6 Tuas South Street 15
Hiap Shing Shipping Pte Ltd,ChIJMTpFRuga2jERh1i5r7cDCMA,clinic,1.2739295,103.6381566,20 Tuas South Street 15
Pan Marine Blasting Abrasives Pte Ltd,ChIJcQvRfuMF2jERYeAcH5hZEFw,clinic,1.2775562,103.6346108,3 Tuas South Street 9
SLS Bearings (S) Pte Ltd,ChIJKdOXNScE2jERAMVAL6ueXLg,clinic,1.2759863,103.637691,5 Tuas South Street 15
Neste,ChIJGfkldikE2jERzTWCluYLH_I,clinic,1.28449,103.6388379,1 Tuas South Lane
DEEPBLUE Pte Ltd,ChIJq6qqxQsQ2jERdCQsDPqcUY8,clinic,1.2766875,103.6366041,"7 Tuas South Street 15, (SEAGULL, #3rd Floor"
Spedco Kaltim Pte Ltd,ChIJmcIG7YUF2jERClNSZjed3Vk,clinic,1.2753431,103.6376954,"3B Tuas South Street 15, CSL Building"
Jian Man Construction Pte Ltd,ChIJd9TaWZ8G2jERabjz3cD9zCI,clinic,1.2774755,103.6336085,11 Tuas South Street 8
T.M. Transport Contractor Pte Ltd,ChIJx51TAFgP2jER0dv7KrsjiWk,clinic,1.2774829,103.6335958,11 Tuas South Street 8
Standard Access Singapore Pte Ltd,ChIJsbeNAI4X2jERRnTOEdpyCfU,clinic,1.2786421,103.6329984,10 Tuas South Street 6
Tuas Power Generation,ChIJRyZnvSsE2jERUXjaAB21J2I,clinic,1.287199,103.640587,60 Tuas South Avenue 9
Mikas Stainless Steels Pte Ltd,ChIJLYSC30UQ2jERWt3yNffe2ew,clinic,1.2775895,103.6331061,9 Tuas South Street 8
Leong Kiang Tractor & Machinery Pte Ltd (Tuas South Street 10 Branch),ChIJmaVIYZ4G2jERhDqfe5e3XvM,clinic,1.2757089,103.6338653,10 Tuas South Avenue 10
E&E Warehouse & Logistics Centre,ChIJh3vsCIQG2jERksH6wT6Veos,clinic,1.276046,103.6333825,9 Tuas South Street 10
Tiong Lee Huat Machinery & Construction Pte Ltd,ChIJ2ZqX9fMX2jERXIbGAP9eS0o,clinic,1.2785776,103.6322758,"6 Tuas South Street 6, Tiong Lee Huat Machinery & Construction Pte Ltd"
S.H. Stainless Steel Contractor Pte Ltd,ChIJX7xB6LAF2jERaGqcg6E2zzk,clinic,1.2784448,103.6321135,"2 Tuas South Street 6, Singapore"
Greenway Environmental,ChIJJZj0EbEF2jER_z-wVDIeaGY,clinic,1.2770284,103.6323142,6 Tuas South Street 8
Eurometalli (Far East) Pte Ltd,ChIJpxYSQpwG2jERv-m5ogmovkA,clinic,1.277727,103.63198,"1 Tuas South Street 8, #01-05"
Advance Storage Pte Ltd,ChIJpVQYapwG2jERmDMFfltIjGU,clinic,1.2775173,103.6317204,"1 Tuas South Street 8, #01-04, Singapore"
Ban Soon Cheong Pte Ltd,ChIJVVVVhe0X2jERLgXFRswhX-4,clinic,1.2775144,103.6316574,"1 Tuas South Street 8, #01-02"
FUJIFILM Electronic Materials @ Tuas View,ChIJYRKCx4EG2jERbj73fQusn7g,clinic,1.2873366,103.6351912,9 Tuas View Lane
CDPL Tuas Dormitory,ChIJN9_BKG0Q2jER8LuXg-GNxfQ,clinic,1.2716092,103.6372452,6 Tuas South Street 15
Heatec JieTong Pte Ltd,ChIJESZfW1EEBBARWLjo85gIzKs,clinic,1.2712682,103.6380337,10 Tuas South Street 15
Ecoplas,ChIJc8ZM6sMF2jERtBEsh86eeOU,clinic,1.2798196,103.6400776,8 Tuas South Lane
DISHUO FURNITURE PTE. LTD.,ChIJk0UWIVIF2jERh3rtIWbO97I,clinic,1.2798196,103.6400776,"01-51 Factory 2, 8 Tuas South Lane, Singapore"
C3A Site Office,ChIJhVkRYVoF2jERl3A5p5cUytU,clinic,1.279821,103.6401659,8 Tuas South Lane
Nipo International Pte Ltd,ChIJk38xqk0F2jERB9ahKHzE6Aw,clinic,1.279821,103.6401659,"8 Tuas South Lane, #01-72 Factory 4"
Varshini Tradings Pte. Ltd.,ChIJu6GcJS4F2jERO0JvUPQJYIo,clinic,1.279821,103.6401659,"8 Tuas South Lane, Hyflux Dormitory"
TWRP car park,ChIJ3SjTfQAF2jERIsORJq1Y8l4,clinic,1.2792296,103.6387931,"90 Tuas South Avenue 9, Singapore"
C2A Zone D,ChIJQ0cyKAsF2jERryjbN1SwrR8,clinic,1.2793652,103.6416946,"71a Tuas Nexus Drive, Singapore"
HLG Warehouse 2,ChIJxeYSRwAF2jERkKaAH2vkP6g,clinic,1.2819201,103.6406806,"8 Tuas South Lane, Singapore"
KGS PTE. LTD. - Your E-Waste and Battery Recycling Experts,ChIJs6PuspUW2jEROfxbDeC_zek,clinic,1.2812355,103.6383503,"8 Tuas South Lane, #01-71"
P-Way dormitory,ChIJN2s6zT8F2jERQ9rFrHXPQTc,clinic,1.2821432,103.6406438,"8 Tuas South Lane, Singapore"
IWMF,ChIJ8bBZG2gF2jERAuJEYcOKoMQ,clinic,1.2799305,103.642628,"8 Tuas South Lane, Singapore"
Entry of TWRP,ChIJs8S7LwAF2jER-To8URS7n-s,clinic,1.2826315,103.6397527,8 Tuas South Lane
CESJV C4B Site Office,ChIJ5QsdYwAF2jERQifKI31n7qo,clinic,1.2825443,103.6426846,8 Tuas South Lane
C3D1 UES HOLDINGS PTE LTD,ChIJx3WWp5sF2jERndwduwuYNsw,clinic,1.2827969,103.6375816,Tuas South Lane
South Area Plant,ChIJVWb2mDAH2jERZ094fH0RpEI,clinic,1.2826219,103.6372193,"2 Tuas South Lane, Singapore"
Kimly Innovation Hub,ChIJ68dyZj8F2jERfgTBQJCl6_4,clinic,1.2776149,103.6366806,9 Tuas South Street 15
SSG,ChIJ09bBHQAH2jERt0ojd79jzmw,clinic,1.2781587,103.636188,90 Tuas South Avenue 9
Crystal offshore Pte Ltd,ChIJn0r2H1kF2jERwInf6QTpOjk,clinic,1.2760631,103.6384139,"15A Tuas South Street 15, Singapore"
Dormitory,ChIJpwIyBE8F2jERN4PEHjnmEN0,clinic,1.277559,103.636408,
New Hope Singapore Premix Pte Ltd,ChIJdUlLnZ0G2jERHjY8dCgZ4v8,clinic,1.2785904,103.6356297,"15 Tuas South Street 6, Singapore"
NEA IWMF @ Tuas Nexus,ChIJJ8H7BwoF2jERI9azgQOKM3Y,clinic,1.2815015,103.6444932,61A Tuas Nexus Drive
IQIP Singapore,ChIJkdirUHMF2jERDelfzweg0-I,clinic,1.2768211,103.6364147,"7 Tuas South Street 15, Block B"
Seagull Marine,ChIJ5dkugJgF2jERiZIjXsPGkIk,clinic,1.276546,103.6364878,7 Tuas South Street 15
Terra Lite Pte. Ltd.,ChIJ7ywc6s8H2jERzPkT2Uv2sk4,clinic,1.278879,103.6350708,11 Tuas South Street 6
Shanaya Environmental Services Pte Ltd,ChIJ1Ug4VGAF2jERHK5jEajbM1A,clinic,1.2749925,103.6378587,3A Tuas South Street 15
Global offshore & marine Pte Ltd,ChIJeYWCaAAF2jERHxtUNR7AnrM,clinic,1.2747193,103.6385162,"22 Tuas South Street 15, Singapore"
POKB - T08(ZZI),ChIJrRl_0jsF2jER-0wylIHLf-A,clinic,1.2848139,103.643023,"8 Tuas South Lane, Singapore"
Gee Hoe Seng Pte Ltd,ChIJZfNnFgAH2jERmpLejapu9xk,clinic,1.2788446,103.6343949,"9 Tuas South Street 6, Singapore"
DBS ATM - Cdpl Tuas Dormitory,ChIJFaCNFSAE2jERdyabd6pKI5g,atm,1.2716262,103.6371522,6 Tuas South Street 15
Stolthaven Singapore Pte Ltd,ChIJpcNFfwAF2jERsRjpQnFucTM,clinic,1.273312,103.6646016,22 Tembusu Crescent
小码头,ChIJmTaBHGMF2jERqCT6paExDMI,clinic,1.2782462,103.6679243,SG
TWRPPL-C1 Shanghai Tunnel Engineering Co(Singapore) Pte Ltd Site Office,ChIJGZ_elHAF2jERXGsq9lodhzw,clinic,1.2716328,103.6621925,2b Angsana Drive
Jurong Island Desalination Plant,ChIJNf-ds5kF2jERb6jCMJ6XEwo,clinic,1.2742918,103.6665154,20A Tembusu Crescent
Staff Canteen @ Pesek Road,ChIJjyzxa1cE2jER2kmN4nBIZAw,restaurant,1.28156,103.678582,1 Pesek Road
Singapore Catalysis Society,ChIJjyzxa1cE2jERBsIBBejffR4,clinic,1.28156,103.678582,
novacap,ChIJ1ZvNPlwE2jERxjAJgUdSTl4,clinic,1.2745176,103.6755787,20 Tembusu Avenue
"Institute Of Sustainability for Chemicals, Energy And Environment (ISCE2)",ChIJCZnYN1gE2jERA0KvXChRvMg,clinic,1.2816581,103.6787862,1 Pesek Road
SBA Warehouse,ChIJsTrTyhEF2jEREupJfRcfr6A,clinic,1.2772763,103.6814891,"M2829 SINGAPORE RESIN PLANT SINGAPORE, 100 Jurong Island Highway, RESIN PLANT, Singapore"
KPW TEMBUSU WORKSHOP,ChIJUct2KQAF2jER43ZCYx8qq58,clinic,1.2773235,103.678112,"Tembusu Crescent, LAMP POST 9"
ACR Engineering Warehouse,ChIJ1SUR4lsF2jER9KnCyOmafl8,clinic,1.2774793,103.6773153,Jurong Island
Tembusu,ChIJ81CoJfwF2jER_btuPUwdguw,clinic,1.2768451,103.6775809,10 Tembusu Crescent
Scan - Bilt Pte Ltd (Tembusu Store),ChIJm8stXgAF2jERk6xE-DJRlr0,clinic,1.2772242,103.6770742,"Scanbilt, Tembusu Crescent"
SRMG Material & Machinery store,ChIJWTIlPQAF2jER16J7LgPGM6k,clinic,1.276942,103.676435,"Scanbilt, Tembusu Crescent"
ジュロン島 CY,ChIJZ-qPq14E2jERuNdVDuZWfMc,clinic,1.2757742,103.6771173,"10 Tembusu Cres, シンガポール 627831 Tembusu Crescent"
Exxon sar 2 jetty,ChIJOb6-EQAF2jER5fOw90U4_0k,clinic,1.2759631,103.6767958,Jurong island
New Admin Building,ChIJ6Yf5HQAF2jERXgTO4PnXuL8,clinic,1.2759631,103.6767958,Jurong Island
Singapore Gas Centre,ChIJzfnlIgAF2jERsPIvsev5SOI,clinic,1.2853446,103.6789982,6 Pesek Drive
Iwatani Corporation (Singapore) Pte Ltd,ChIJN7miYwAF2jERoWPl6FGEIQE,clinic,1.2853446,103.6789982,6 Pesek Drive
Keppel Merlimau Cogen Plant,ChIJUacYRwAF2jERUZGRGWJlWXE,clinic,1.2833586,103.6754987,"201 Jurong Island Highway, Singapore"
Project Location,ChIJUW1uLjwF2jER2ur3LFFy3gE,clinic,1.2847644,103.6770031,Singapore
SH Cogent Logistics Pte Ltd,ChIJrzQ4tl0E2jERzB0gv75dIMg,clinic,1.2747739,103.6753817,30 Tembusu Avenue
Novabay Pte Ltd,ChIJw-lprY4F2jERT8e8rCARabw,clinic,1.2745571,103.675612,20 Tembusu Avenue
New solar project AUM SPCI,ChIJ4f0cAQAF2jERDOxQx0CEDqQ,clinic,1.2881022,103.6830533,"11 Pesek Drive, Singapore"
Gashubunited Utility,ChIJOaWG7E0F2jER3biLHYj0vnE,clinic,1.2736897,103.6738803,32 Tembusu Avenue
SPCI HELM ADVANCED PTE LTD,ChIJtx_IXQAF2jERLK92_B5q5M0,clinic,1.2883153,103.6827944,"11 Pesek Drive, Singapore"
1 Ayer Chawan Exxon,ChIJLQ1PbgAF2jERm3wrO2hASUc,clinic,1.280203,103.701167,1 Ayer Chawan Pl
ExxonMobil PAC,ChIJgXnZo-gE2jERDRk0h4asnNE,clinic,1.280203,103.701167,1 Ayer Chawan Pl
Infineum S'pore Pte Ltd (performance,ChIJBWl9MekE2jERei9NZ-HxYhY,clinic,1.2774133,103.7003237,Pulau Ayer Chawan
UT SINGAPORE SERVICES PTE LTD,ChIJSxXqFwAF2jERodRGy9OyYgw,clinic,1.2812044,103.6972867,Jurong Island
Mechanical Workshop,ChIJmyRFfsMF2jERCSPTj9zG28g,clinic,1.279665,103.703457,Unnamed Road
Loh&Loh Site Office-Crisp Lab,ChIJDdbdJwAF2jERu5EPrOHze1I,clinic,1.2832425,103.7016695,Jurong Island
PAC warehouse,ChIJz4HsRgAF2jERBDURJlTcd-o,clinic,1.279808,103.7036629,Unnamed Road
MSB,ChIJBdT4ABgF2jERgC0qEioO0GA,clinic,1.2789573,103.7036899,Singapore
Tanjong Mak Aerik,ChIJ6z8S9moF2jERjdG3r-NEtm0,clinic,1.2843024,103.6997731,
CAA63,ChIJk2FBGAAF2jERpQXForgG0U0,clinic,1.2821033,103.7050409,Jurong Island
CRISP SIC & Pass Office,ChIJ4bkn9ScF2jERPg9-7qHiuWg,clinic,1.2828242,103.7053492,Jurong Island
Infineum Singapore LLP,ChIJW0IuAO0E2jERQy7z9Jrck1Q,clinic,1.2740086,103.6948928,3 Ayer Chawan Pl
Continental Chemical Corporation Pte Ltd,ChIJTfn5O9EE2jERG-kUdFzfOa0,clinic,1.2856399,103.7213936,2 Seraya Place
Linde Gas Singapore Pte Ltd,ChIJL73LX8UE2jERfZAOEwvM0i8,clinic,1.2793759,103.716775,50 Jurong Island Highway
Hiap Tong Crane & Transport,ChIJNer8dc8E2jERtdjXqQhJL3M,clinic,1.2777755,103.7180757,61 Jurong Island Highway
Rotary Engineering Pte. Ltd,ChIJuZm-Y88E2jERcGBbeHPj2Uk,clinic,1.2780492,103.7172546,61 Jurong Island Highway
Supermec Pte Ltd,ChIJuZm-Y88E2jERIbdBrH9u7Ro,clinic,1.277294,103.717588,61 Jurong Island Highway
PacificLight Power Pte Ltd,ChIJm422E9EE2jERN1UT6HPqG4E,clinic,1.2834685,103.7214363,"47 Jurong island Highway, Seraya Place, Singapore"
Nouryon Surface Chemistry Pte Ltd,ChIJKU0Y6dAE2jERuOMecdVLKuA,clinic,1.283714,103.7192831,40 Jurong Island Highway
Coim Asia Pacific Pte Ltd,ChIJC2bBENQE2jERlXz8DnML1a4,clinic,1.285531,103.7235649,10 Seraya Place
Bertschi Singapore Pte Ltd,ChIJ_wGjyNYE2jER6XffgHPYJnc,clinic,1.2855658,103.72141,2 Seraya Place
Chemical Specialties Limited,ChIJlzWxqskE2jERgJAXDZCEqY4,clinic,1.2732603,103.7202908,31 Ayer Merbau Road
Stolt Container Terminal Pte Ltd,ChIJJZj0EbEF2jERXq6VI6bxw4U,clinic,1.2736326,103.7165455,23 Ayer Merbau Road
Poh Tiong Choon,ChIJG20PQ8YE2jERlv6_QmqgXX8,clinic,1.274397,103.715311,21 Ayer Merbau Road
Stella Chemifa Singapore Pte Ltd,ChIJeTLmlcQE2jERX7uGzoHp8W8,clinic,1.279176,103.712483,Singapore
Croda Singapore (Seraya),ChIJE8erSckE2jEROPi4iLmDehY,clinic,1.2742474,103.7224573,30 Seraya Avenue
PUB JURONG ISLAND INDUSTRIAL WATER SERVICE RESERVOIR,ChIJCQNVAgAF2jERymUs5wcdx-g,clinic,1.2785946,103.7188264,2 Seraya Avenue
Afton Chemical Asia Pte Ltd,ChIJ_wGjyNYE2jERiduAIDOo7mI,clinic,1.2820804,103.7200966,2 Seraya Rise
Huationg Asia Proprietary Limited,ChIJ____g88E2jERMNUa4BmE01Y,clinic,1.2783741,103.7176945,Seraya Avenue
Singapore Linde Upgrade Site Office - Sector C,ChIJcaoccgAF2jERJu5mxuxBTPE,clinic,1.2814964,103.7176209,Jurong Island
Rotary imc pre lrd,ChIJ0dv71McF2jERszWBtvoX5lA,clinic,1.2783172,103.717459,"61jurog, lsland highway"
Leong Ann,ChIJuZm-Y88E2jERsEYnfa5w4rY,clinic,1.277294,103.717588,61 Jurong Island Highway
Fondisonzo S E A Pte Ltd,ChIJuZm-Y88E2jERChLUQb1eKtk,clinic,1.277294,103.717588,61 Jurong Island Highway
Atmas Engrg. Pte Ltd,ChIJuZm-Y88E2jERNZj1xJfXyCk,clinic,1.277294,103.717588,61 Jurong Island Highway
Huntsman (S) Pte. Ltd.,ChIJw4BQK8kE2jERfuaH0atlP5s,clinic,1.2761428,103.7217211,10 Seraya Avenue
Transtar Travel Pte Ltd,ChIJS1n91XsF2jERhzSfSD-YjxU,clinic,1.2749037,103.7228435,"SG bukit batok 229 east aevnue 3, HDB"
Packiyarajmeena Packiyarajmeena,ChIJjc1O8TcF2jERgoBHB9eoPRc,clinic,1.2860508,103.7207681,Singapore
MacDow Site,ChIJz69tvNYE2jER40EEGhFtTgU,clinic,1.2860008,103.7221429,Seraya Place
Singapore Linde Upgrade Project Office,ChIJFUe3cbcF2jER1f7RZHABPrs,clinic,1.2866499,103.7199707,"Jurong Island, Merlimau Lane"
Linde Engineering Laydown Office,ChIJn07A1RMF2jERdQlY-MPOKrc,clinic,1.2867377,103.720057,Jurong Island
Linde New Gasification,ChIJ58BDFZYF2jERiZQeR4yQQM8,clinic,1.2789873,103.7129582,21 Merlimau Place
"ChampionX, Eastern Hemisphere Core Plant",ChIJIwgEKMQE2jERSKFjjkVJl2Y,clinic,1.2758272,103.7141265,11 Ayer Merbau Road
LINDE GAS - Laydown1 Office (TSF),ChIJ-6aFRLsF2jER7SNCGzxjGN4,clinic,1.287176,103.7200323,Jurong Island
Stepan Asia Pte. Ltd.,ChIJp6xVwdYE2jER5qKd6EG-dLY,clinic,1.2870142,103.7215042,1 Seraya Place
Pulau Seraya Power Station,ChIJI2N70M8E2jERPym3SgucGVY,clinic,1.2832954,103.7265436,"3 Seraya Avenue, Singapore"
YTL PowerSeraya,ChIJdW3rUEUF2jERPXz8_Ts7AOE,clinic,1.2833025,103.7265588,"3 Seraya Avenue, Singapore"
Championx Sg Service Pte. Ltd.,ChIJSY9rKMQE2jERfmKv30CHFJE,clinic,1.2758473,103.7137821,11 Ayer Merbau Road
Lintec Testing Services Ltd (singapore,ChIJTTLxnMwE2jERS6MAmtfly0g,clinic,1.2761299,103.7267193,1 Seraya Avenue
Denka Singapore Pte Ltd (Seraya Avenue),ChIJn8lLKMoE2jERJ6IMy1GCdRc,clinic,1.272918,103.723228,40 Seraya Avenue
GIIAVA Singapore,ChIJT_UdKMQE2jER9gyijjqmxVU,clinic,1.2758056,103.7129596,10 Ayer Merbau Road
Advario Singapore Limited (Jurong Island Highway Terminal),ChIJQaYwzdcE2jER1aI2Zjz75Lc,clinic,1.2883865,103.7206027,21 Jurong Island Highway
Baker Hughes Services Pte Ltd,ChIJ5VztkkEF2jERjgNvbpOnz_Y,clinic,1.2717427,103.7178579,"29 Ayer Merbau Road, Singapore"
Third Coast International Qatar,ChIJlzWxqskE2jERNtVFMsqK-ak,clinic,1.271257,103.7187031,Ayer Merbau Road
SGS Testing & Control Services Singapore Pte Ltd,ChIJTTLxnMwE2jERYnGVNtN2Fm8,clinic,1.2784406,103.7322766,"1 Seraya Avenue, Jurong island"
Advario Singapore Chemical,ChIJedXZczEb2jERppZxbFjNEhA,clinic,1.2732598,103.7381661,1 Seraya Avenue
PSA Canteen 2,ChIJq4S6qCAb2jERQ9xFV3-0zqg,cafe,1.2779683,103.7629154,Pasir Panjang Terminal Avenue 3
PSA Car Carrier Terminal Office,ChIJETq9ahAb2jERZL5RZMQZLE8,clinic,1.2790483,103.7621436,Pasir Panjang
PSA Terminal 2,ChIJIbVxFRAb2jERxbWhmFv3Y6g,clinic,1.279054,103.7623689,PSA Terminal 2
PSA P10,ChIJyXYaLAAb2jERlSPK-sDPylA,clinic,1.2821199,103.7616107,Pasir Panjang Drive 3
Multi-Level Automotive Yard (May),ChIJtQh7phkb2jERUMBIOMS5VMU,clinic,1.2822899,103.7558592,Singapore
Viva Vista Shopping Mall,ChIJr1piWqUb2jERe2fPwBJvucU,shopping_mall,1.279714,103.7860135,"3 South Buona Vista Road, Viva Vista Shopping Mall"
Sparkle,ChIJISBn6awb2jERRuKkH9QGSUk,shopping_mall,1.2878364,103.7827555,45 Science Park Road
Fruit Wholesale Pasir Panjang,ChIJyZR0zqsb2jERMHnnhwh5qOs,shopping_mall,1.286429,103.7774781,"12 Pasir Panjang, Wholesale Centre, Singapore"
Opp Haw Par Villa Stn,ChIJ4byj0a4b2jERbEnE7N_TQ5M,transit_station,1.2828768,103.7815268,Singapore
"Haw Par Villa Stn, West Coast Hwy",ChIJpQQqzq4b2jERk6R_StBB52s,transit_station,1.283,103.78158,Singapore
Wharves Bldg,ChIJT79em6Ub2jER0no60iHHu30,transit_station,1.279419,103.783577,Singapore
Haw Par Villa,ChIJCRjzJ68b2jER7QSuHv9dtN4,transit_station,1.283106,103.7819799,Singapore
Horizon Residences,ChIJO4dwoq8b2jERe-x4Xc9mQ3Q,transit_station,1.281591,103.784004,Singapore
Barossa Gdns,ChIJH-0zoK8b2jERwo1CGUd973g,transit_station,1.281301,103.784111,Singapore
Aft Sth Buona Vista Rd,ChIJSxhIXaUb2jER7kQeCn8prn8,transit_station,1.279499,103.785492,Singapore
Gloria Mansion,ChIJbSxfkqsb2jER6W28cjlkOCo,transit_station,1.286085,103.78022,Singapore
"Opp Wholesale Ctr, West Coast Highway",ChIJFSyauqsb2jERYu9kITrhe2Y,transit_station,1.28643,103.77892,Singapore
Opp Wholesale Ctr,ChIJ1UOXuqsb2jERkN-HyosWUQs,transit_station,1.286435,103.778931,Singapore
Opp Pasir View Pk,ChIJYedpKaUb2jER9rUKEkH0WLI,transit_station,1.277924,103.78643,Singapore
Aft Lor Sarhad,ChIJwxOa4q8b2jERxCZI7Qa-gbM,transit_station,1.280741,103.786827,Singapore
Opp Lor Sarhad,ChIJFdrgILAb2jERwbnosYSLfCA,transit_station,1.281425,103.787018,Singapore
Galen,ChIJORXXUawb2jERl5E9WRWA0J4,transit_station,1.286511,103.783455,Singapore
Teletech Pk,ChIJX4-3X6wb2jERRKTOpcMIZjU,transit_station,1.286976,103.782608,Singapore
Aries,ChIJgcY3X6wb2jER0nwsmtWvO78,transit_station,1.28701,103.782829,Singapore
S'pore Science Pk II,ChIJ_cV_Gasb2jERijbFe6gK2Jw,transit_station,1.28799,103.778717,Singapore
Lp 30,ChIJqZKr7K0b2jER9Nb8hdJWzFU,transit_station,1.28592,103.785812,Singapore
Sci Pk 2/The Galen,ChIJCfHTpa0b2jERRaiAWBduR1U,transit_station,1.286763,103.784843,Singapore
Opp Natl Leadership Inst,ChIJC4pdz7Eb2jER_psj4OQ8j2o,transit_station,1.282907,103.787811,Singapore
Opp LP 31,ChIJxdMolK0b2jERFsH8KJgTcdA,transit_station,1.286176,103.785622,Singapore
Ding Ji,ChIJDVtFxasb2jERC5v91LTtLro,restaurant,1.2853884,103.778933,"1 Wholesale Centre, #01-02, Singapore"
Eat Fit Meal Prep,ChIJleO_ehAY2jERndRFIdZSPjA,restaurant,1.2797197,103.7859924,"3 South Buona Vista Road, #B1-04 Viva Vista"
Reedz Cafe,ChIJ94PkRqsb2jERj766IVTrIGM,restaurant,1.288347,103.7796998,"10 Science Park Road, #01-10 The Alpha"
The Pipe District,ChIJsys26awb2jERfQuHLB58LGQ,restaurant,1.2881673,103.7830648,"43 Science Park Road, #01-09 we are at the top of the stairs near Kopi & Tarts"
HooHa Cafe,ChIJ08b9RKUb2jER4HbtO6l_RIg,restaurant,1.279714,103.7860135,"3 South Buona Vista Road, #01-01/02/03/04/#B1-05/06/11/54 Viva Vista Mall"
88 Seafood,ChIJsdtvKvQb2jERSCd1FovDxtQ,restaurant,1.28292,103.78048,"27 West Coast Highway, #01-12"
Volta Bistro,ChIJJVd0jNEb2jER5E621hKhmoA,restaurant,1.2829969,103.7801929,"27 West Coast Highway, #01-02/03"
Coastal Acoustic,ChIJjaaQr_wb2jER6K-DtNZ7Yns,restaurant,1.2830136,103.7805948,"27 West Coast Highway, #01-08/09"
Hotbake 24/7 - Sandwich Vending Machine,ChIJLzOvfz4b2jERl6GJ9GxJBnA,restaurant,1.28309,103.7795021,Harbour Drive
Komezu Japanese Bistro,ChIJT1Itg7Eb2jER--ZJN1cu_90,restaurant,1.2830764,103.7806052,"27 West Coast Highway, #01-01"
Kinn Derm,ChIJuVKfHNIb2jERb_4VY2WutpQ,restaurant,1.2830764,103.7806052,"27 West Coast Highway, #01-01"
Ignite Spaces,ChIJoTa7_zkb2jERKAY2QjTJ_HQ,restaurant,1.2830764,103.7806052,"27 West Coast Highway, #02-08"
Onui Pte. Ltd.,ChIJ8Yy0Makb2jERzNrED7wcrjo,restaurant,1.2830562,103.7807279,Singapore
LE WHITE BAR,ChIJZ4JqKmgb2jEROuOzh5z42no,restaurant,1.2831852,103.7805348,"27 West Coast Highway, #01-05"
ORTO,ChIJncjPBA8U2jER5ol9uaCD7KY,restaurant,1.2831852,103.7805348,27 West Coast Highway
BKK Bistro & Bar - West Coast,ChIJpzXw4yob2jERnZL43bAQmHQ,restaurant,1.2853689,103.7790366,"1 Pasir Panjang, Wholesale Centre, #01-02"
Ken Venture Investment Pte. Ltd.,ChIJDVtFxasb2jERxW2BA6Z4qtE,restaurant,1.2853884,103.778933,1 Wholesale Centre
STT Indian Cuisine,ChIJyZjkpyUT2jER56SlokPsko4,restaurant,1.2796,103.7856923,218 Pasir Panjang Road
Wakamama (By Reservations Only),ChIJ_Wma4YQb2jERAthljNsxKqE,restaurant,1.2792617,103.7859138,"218 Pasir Panjang Road, #02-15 ICON @ Pasir Panjang"
The Jip and Lab,ChIJ5fDFrewb2jERLqMtLwAPNu8,restaurant,1.279714,103.7860135,"3 South Buona Vista Road, #01-05 Viva Vista"
99 Buona Vista Kitchen,ChIJR4mBArAb2jERMQtZDkYdvhE,restaurant,1.2804626,103.7867971,22 South Buona Vista Road
Barrels,ChIJ7Z3gWqUb2jER2usAUakliwM,restaurant,1.2807082,103.7870009,34 South Buona Vista Road
365 Your Everyday Food,ChIJIRSElW4b2jER3Wa8SGoGDNY,restaurant,1.2868545,103.7817143,"20 Science Park Road, #02-38 Teletech Park"
Plank Sourdough Pizza - South Buona Vista,ChIJ18eWVn8b2jERJRk4cgDFk-8,restaurant,1.2807924,103.7870563,38 South Buona Vista Road
